data/STK Exports/Acess_GS_Ahmedabad-To-Satellite-Walker12.csv

"Access","Start Time (UTCG)","Stop Time (UTCG)","Duration (sec)"
1,1 Jan 2026 00:40:10.668,1 Jan 2026 00:47:29.570,438.902
2,1 Jan 2026 12:44:29.357,1 Jan 2026 12:56:05.271,695.914
3,1 Jan 2026 14:24:04.987,1 Jan 2026 14:36:37.409,752.422
4,1 Jan 2026 16:06:54.063,1 Jan 2026 16:15:55.879,541.817
5,1 Jan 2026 17:51:31.137,1 Jan 2026 17:55:40.314,249.177
6,1 Jan 2026 19:32:12.322,1 Jan 2026 19:39:43.661,451.339
7,1 Jan 2026 21:11:24.627,1 Jan 2026 21:23:19.648,715.021
8,1 Jan 2026 22:51:25.727,1 Jan 2026 23:03:54.187,748.459

Statistics
"Min Duration",5,1 Jan 2026 17:51:31.137,1 Jan 2026 17:55:40.314,249.177
"Max Duration",3,1 Jan 2026 14:24:04.987,1 Jan 2026 14:36:37.409,752.422
"Mean Duration",,,,574.131
"Total Duration",,,,4593.052


"Access","Start Time (UTCG)","Stop Time (UTCG)","Duration (sec)"
1,1 Jan 2026 00:05:22.061,1 Jan 2026 00:15:53.214,631.153
2,1 Jan 2026 12:12:17.340,1 Jan 2026 12:21:50.163,572.823
3,1 Jan 2026 13:50:29.630,1 Jan 2026 14:03:19.762,770.132
4,1 Jan 2026 15:32:18.280,1 Jan 2026 15:42:52.929,634.649
5,1 Jan 2026 17:16:43.987,1 Jan 2026 17:22:09.531,325.544
6,1 Jan 2026 18:59:03.883,1 Jan 2026 19:04:45.302,341.418
7,1 Jan 2026 20:38:18.690,1 Jan 2026 20:49:05.921,647.231
8,1 Jan 2026 22:17:54.845,1 Jan 2026 22:30:44.883,770.037
9,1 Jan 2026 23:59:36.770,2 Jan 2026 00:00:00.000,23.230

Statistics
"Min Duration",9,1 Jan 2026 23:59:36.770,2 Jan 2026 00:00:00.000,23.230
"Max Duration",3,1 Jan 2026 13:50:29.630,1 Jan 2026 14:03:19.762,770.132
"Mean Duration",,,,524.024
"Total Duration",,,,4716.217


"Access","Start Time (UTCG)","Stop Time (UTCG)","Duration (sec)"
1,1 Jan 2026 11:41:23.538,1 Jan 2026 11:46:19.805,296.267
2,1 Jan 2026 13:17:16.642,1 Jan 2026 13:29:51.032,754.390
3,1 Jan 2026 14:58:01.458,1 Jan 2026 15:09:47.582,706.124
4,1 Jan 2026 16:41:45.354,1 Jan 2026 16:48:59.481,434.127
5,1 Jan 2026 18:25:37.814,1 Jan 2026 18:29:54.496,256.682
6,1 Jan 2026 20:05:15.546,1 Jan 2026 20:14:32.920,557.374
7,1 Jan 2026 21:44:35.762,1 Jan 2026 21:57:12.891,757.128
8,1 Jan 2026 23:25:14.943,1 Jan 2026 23:36:36.890,681.947

Statistics
"Min Duration",5,1 Jan 2026 18:25:37.814,1 Jan 2026 18:29:54.496,256.682
"Max Duration",7,1 Jan 2026 21:44:35.762,1 Jan 2026 21:57:12.891,757.128
"Mean Duration",,,,555.505
"Total Duration",,,,4444.039


"Access","Start Time (UTCG)","Stop Time (UTCG)","Duration (sec)"
1,1 Jan 2026 00:13:05.225,1 Jan 2026 00:17:12.093,246.868
2,1 Jan 2026 01:53:39.090,1 Jan 2026 02:01:20.909,461.819
3,1 Jan 2026 03:32:52.010,1 Jan 2026 03:44:52.058,720.048
4,1 Jan 2026 05:12:56.099,1 Jan 2026 05:25:20.582,744.483
5,1 Jan 2026 06:57:50.169,1 Jan 2026 06:59:48.068,117.899
6,1 Jan 2026 18:59:09.887,1 Jan 2026 19:11:28.705,738.818
7,1 Jan 2026 20:39:30.506,1 Jan 2026 20:51:36.591,726.085
8,1 Jan 2026 22:22:55.415,1 Jan 2026 22:30:50.065,474.650

Statistics
"Min Duration",5,1 Jan 2026 06:57:50.169,1 Jan 2026 06:59:48.068,117.899
"Max Duration",4,1 Jan 2026 05:12:56.099,1 Jan 2026 05:25:20.582,744.483
"Mean Duration",,,,528.834
"Total Duration",,,,4230.671


"Access","Start Time (UTCG)","Stop Time (UTCG)","Duration (sec)"
1,1 Jan 2026 01:20:31.333,1 Jan 2026 01:26:22.999,351.667
2,1 Jan 2026 02:59:45.629,1 Jan 2026 03:10:40.159,654.531
3,1 Jan 2026 04:39:23.827,1 Jan 2026 04:52:13.445,769.619
4,1 Jan 2026 06:21:13.810,1 Jan 2026 06:30:00.446,526.637
5,1 Jan 2026 18:26:33.669,1 Jan 2026 18:37:34.290,660.621
6,1 Jan 2026 20:05:41.608,1 Jan 2026 20:18:23.995,762.387
7,1 Jan 2026 21:48:09.181,1 Jan 2026 21:57:47.066,577.885
8,1 Jan 2026 23:32:47.096,1 Jan 2026 23:37:17.768,270.672

Statistics
"Min Duration",8,1 Jan 2026 23:32:47.096,1 Jan 2026 23:37:17.768,270.672
"Max Duration",3,1 Jan 2026 04:39:23.827,1 Jan 2026 04:52:13.445,769.619
"Mean Duration",,,,571.752
"Total Duration",,,,4574.019


"Access","Start Time (UTCG)","Stop Time (UTCG)","Duration (sec)"
1,1 Jan 2026 00:47:07.555,1 Jan 2026 00:51:30.559,263.005
2,1 Jan 2026 02:26:42.254,1 Jan 2026 02:36:08.847,566.593
3,1 Jan 2026 04:06:03.804,1 Jan 2026 04:18:43.408,759.605
4,1 Jan 2026 05:46:47.541,1 Jan 2026 05:58:00.534,672.993
5,1 Jan 2026 17:54:40.438,1 Jan 2026 18:03:01.759,501.321
6,1 Jan 2026 19:32:14.139,1 Jan 2026 19:45:02.782,768.644
7,1 Jan 2026 21:13:40.040,1 Jan 2026 21:24:43.476,663.435
8,1 Jan 2026 22:57:52.729,1 Jan 2026 23:03:56.883,364.154

Statistics
"Min Duration",1,1 Jan 2026 00:47:07.555,1 Jan 2026 00:51:30.559,263.005
"Max Duration",6,1 Jan 2026 19:32:14.139,1 Jan 2026 19:45:02.782,768.644
"Mean Duration",,,,569.969
"Total Duration",,,,4559.750


"Access","Start Time (UTCG)","Stop Time (UTCG)","Duration (sec)"
1,1 Jan 2026 01:20:35.048,1 Jan 2026 01:32:58.256,743.208
2,1 Jan 2026 03:01:01.667,1 Jan 2026 03:13:03.167,721.500
3,1 Jan 2026 04:44:31.252,1 Jan 2026 04:52:16.194,464.942
4,1 Jan 2026 06:28:41.497,1 Jan 2026 06:32:47.883,246.386
5,1 Jan 2026 08:08:32.238,1 Jan 2026 08:17:22.425,530.187
6,1 Jan 2026 09:47:49.703,1 Jan 2026 10:00:18.166,748.463
7,1 Jan 2026 11:28:16.931,1 Jan 2026 11:40:02.387,705.455
8,1 Jan 2026 23:37:15.573,1 Jan 2026 23:43:58.649,403.076

Statistics
"Min Duration",4,1 Jan 2026 06:28:41.497,1 Jan 2026 06:32:47.883,246.386
"Max Duration",6,1 Jan 2026 09:47:49.703,1 Jan 2026 10:00:18.166,748.463
"Mean Duration",,,,570.402
"Total Duration",,,,4563.218


"Access","Start Time (UTCG)","Stop Time (UTCG)","Duration (sec)"
1,1 Jan 2026 00:47:55.974,1 Jan 2026 00:59:06.161,670.187
2,1 Jan 2026 02:27:10.913,1 Jan 2026 02:39:51.206,760.293
3,1 Jan 2026 04:09:43.760,1 Jan 2026 04:19:13.071,569.312
4,1 Jan 2026 05:54:21.803,1 Jan 2026 05:58:46.860,265.057
5,1 Jan 2026 07:35:28.149,1 Jan 2026 07:42:29.849,421.700
6,1 Jan 2026 09:14:40.171,1 Jan 2026 09:26:19.294,699.123
7,1 Jan 2026 10:54:33.576,1 Jan 2026 11:07:11.765,758.189
8,1 Jan 2026 12:37:41.953,1 Jan 2026 12:43:29.479,347.526

Statistics
"Min Duration",4,1 Jan 2026 05:54:21.803,1 Jan 2026 05:58:46.860,265.057
"Max Duration",2,1 Jan 2026 02:27:10.913,1 Jan 2026 02:39:51.206,760.293
"Mean Duration",,,,561.423
"Total Duration",,,,4491.386


"Access","Start Time (UTCG)","Stop Time (UTCG)","Duration (sec)"
1,1 Jan 2026 00:15:57.578,1 Jan 2026 00:24:38.520,520.942
2,1 Jan 2026 01:53:41.493,1 Jan 2026 02:06:30.925,769.432
3,1 Jan 2026 03:35:12.985,1 Jan 2026 03:46:09.648,656.663
4,1 Jan 2026 05:19:28.973,1 Jan 2026 05:25:23.741,354.768
5,1 Jan 2026 07:02:16.471,1 Jan 2026 07:07:31.496,315.025
6,1 Jan 2026 08:41:35.162,1 Jan 2026 08:52:00.191,625.029
7,1 Jan 2026 10:21:06.352,1 Jan 2026 10:33:56.032,769.680
8,1 Jan 2026 12:02:27.520,1 Jan 2026 12:12:19.521,592.002

Statistics
"Min Duration",5,1 Jan 2026 07:02:16.471,1 Jan 2026 07:07:31.496,315.025
"Max Duration",7,1 Jan 2026 10:21:06.352,1 Jan 2026 10:33:56.032,769.680
"Mean Duration",,,,575.443
"Total Duration",,,,4603.541


"Access","Start Time (UTCG)","Stop Time (UTCG)","Duration (sec)"
1,1 Jan 2026 05:58:29.105,1 Jan 2026 06:05:40.042,430.937
2,1 Jan 2026 07:35:27.199,1 Jan 2026 07:48:11.598,764.399
3,1 Jan 2026 09:16:35.516,1 Jan 2026 09:27:58.533,683.017
4,1 Jan 2026 11:00:36.448,1 Jan 2026 11:07:10.636,394.188
5,1 Jan 2026 12:43:58.535,1 Jan 2026 12:48:40.998,282.463
6,1 Jan 2026 14:23:24.644,1 Jan 2026 14:33:17.193,592.549
7,1 Jan 2026 16:02:49.810,1 Jan 2026 16:15:35.246,765.436
8,1 Jan 2026 17:43:47.889,1 Jan 2026 17:54:30.450,642.561

Statistics
"Min Duration",5,1 Jan 2026 12:43:58.535,1 Jan 2026 12:48:40.998,282.463
"Max Duration",7,1 Jan 2026 16:02:49.810,1 Jan 2026 16:15:35.246,765.436
"Mean Duration",,,,569.444
"Total Duration",,,,4555.550


"Access","Start Time (UTCG)","Stop Time (UTCG)","Duration (sec)"
1,1 Jan 2026 07:02:29.972,1 Jan 2026 07:14:32.964,722.991
2,1 Jan 2026 08:42:31.604,1 Jan 2026 08:54:50.376,738.772
3,1 Jan 2026 10:25:41.297,1 Jan 2026 10:34:05.545,504.249
4,1 Jan 2026 12:10:08.956,1 Jan 2026 12:14:10.455,241.500
5,1 Jan 2026 13:50:21.810,1 Jan 2026 13:58:33.405,491.595
6,1 Jan 2026 15:29:36.121,1 Jan 2026 15:41:49.664,733.543
7,1 Jan 2026 17:09:49.237,1 Jan 2026 17:21:59.501,730.264

Statistics
"Min Duration",4,1 Jan 2026 12:10:08.956,1 Jan 2026 12:14:10.455,241.500
"Max Duration",2,1 Jan 2026 08:42:31.604,1 Jan 2026 08:54:50.376,738.772
"Mean Duration",,,,594.702
"Total Duration",,,,4162.914


"Access","Start Time (UTCG)","Stop Time (UTCG)","Duration (sec)"
1,1 Jan 2026 06:30:03.236,1 Jan 2026 06:40:30.768,627.532
2,1 Jan 2026 08:08:48.522,1 Jan 2026 08:21:35.783,767.261
3,1 Jan 2026 09:50:59.396,1 Jan 2026 10:01:02.746,603.350
4,1 Jan 2026 11:35:33.716,1 Jan 2026 11:40:25.981,292.266
5,1 Jan 2026 13:17:16.067,1 Jan 2026 13:23:37.239,381.171
6,1 Jan 2026 14:56:28.557,1 Jan 2026 15:07:43.340,674.783
7,1 Jan 2026 16:36:12.653,1 Jan 2026 16:48:59.213,766.560
8,1 Jan 2026 18:18:29.992,1 Jan 2026 18:26:13.527,463.534

Statistics
"Min Duration",4,1 Jan 2026 11:35:33.716,1 Jan 2026 11:40:25.981,292.266
"Max Duration",2,1 Jan 2026 08:08:48.522,1 Jan 2026 08:21:35.783,767.261
"Mean Duration",,,,572.057
"Total Duration",,,,4576.457


