data/STK Exports/Acess_GS_Sriharikota-To-Satellite-Walker32.csv

"Access","Start Time (UTCG)","Stop Time (UTCG)","Duration (sec)"
1,1 Jan 2026 00:43:29.462,1 Jan 2026 00:51:03.859,454.397
2,1 Jan 2026 11:05:07.341,1 Jan 2026 11:14:32.169,564.827
3,1 Jan 2026 12:43:24.592,1 Jan 2026 12:56:11.568,766.976
4,1 Jan 2026 14:26:02.226,1 Jan 2026 14:34:48.366,526.141
5,1 Jan 2026 21:15:06.881,1 Jan 2026 21:26:07.923,661.042
6,1 Jan 2026 22:54:37.719,1 Jan 2026 23:07:13.262,755.544

Statistics
"Min Duration",1,1 Jan 2026 00:43:29.462,1 Jan 2026 00:51:03.859,454.397
"Max Duration",3,1 Jan 2026 12:43:24.592,1 Jan 2026 12:56:11.568,766.976
"Mean Duration",,,,621.488
"Total Duration",,,,3728.926


"Access","Start Time (UTCG)","Stop Time (UTCG)","Duration (sec)"
1,1 Jan 2026 00:08:35.816,1 Jan 2026 00:19:20.043,644.227
2,1 Jan 2026 10:34:24.618,1 Jan 2026 10:38:35.322,250.705
3,1 Jan 2026 12:10:08.493,1 Jan 2026 12:22:45.139,756.646
4,1 Jan 2026 13:51:16.507,1 Jan 2026 14:02:14.357,657.850
5,1 Jan 2026 20:42:32.103,1 Jan 2026 20:51:23.557,531.454
6,1 Jan 2026 22:21:10.686,1 Jan 2026 22:33:58.005,767.319

Statistics
"Min Duration",2,1 Jan 2026 10:34:24.618,1 Jan 2026 10:38:35.322,250.705
"Max Duration",6,1 Jan 2026 22:21:10.686,1 Jan 2026 22:33:58.005,767.319
"Mean Duration",,,,601.367
"Total Duration",,,,3608.200


"Access","Start Time (UTCG)","Stop Time (UTCG)","Duration (sec)"
1,1 Jan 2026 11:37:19.639,1 Jan 2026 11:48:56.382,696.743
2,1 Jan 2026 13:17:06.438,1 Jan 2026 13:29:20.883,734.445
3,1 Jan 2026 15:01:50.221,1 Jan 2026 15:06:39.889,289.668
4,1 Jan 2026 20:10:38.037,1 Jan 2026 20:15:38.790,300.752
5,1 Jan 2026 21:48:00.871,1 Jan 2026 22:00:17.006,736.135
6,1 Jan 2026 23:28:27.330,1 Jan 2026 23:40:01.141,693.811

Statistics
"Min Duration",3,1 Jan 2026 15:01:50.221,1 Jan 2026 15:06:39.889,289.668
"Max Duration",5,1 Jan 2026 21:48:00.871,1 Jan 2026 22:00:17.006,736.135
"Mean Duration",,,,575.259
"Total Duration",,,,3451.554


"Access","Start Time (UTCG)","Stop Time (UTCG)","Duration (sec)"
1,1 Jan 2026 03:36:32.249,1 Jan 2026 03:47:42.195,669.946
2,1 Jan 2026 05:16:07.950,1 Jan 2026 05:28:40.147,752.196
3,1 Jan 2026 07:01:02.851,1 Jan 2026 07:03:39.625,156.774
4,1 Jan 2026 17:19:23.581,1 Jan 2026 17:30:22.884,659.303
5,1 Jan 2026 18:58:40.088,1 Jan 2026 19:11:11.250,751.161
6,1 Jan 2026 20:42:29.341,1 Jan 2026 20:49:06.154,396.812

Statistics
"Min Duration",3,1 Jan 2026 07:01:02.851,1 Jan 2026 07:03:39.625,156.774
"Max Duration",2,1 Jan 2026 05:16:07.950,1 Jan 2026 05:28:40.147,752.196
"Mean Duration",,,,564.365
"Total Duration",,,,3386.193


"Access","Start Time (UTCG)","Stop Time (UTCG)","Duration (sec)"
1,1 Jan 2026 03:03:55.268,1 Jan 2026 03:13:01.576,546.308
2,1 Jan 2026 04:42:39.115,1 Jan 2026 04:55:27.191,768.076
3,1 Jan 2026 06:24:30.590,1 Jan 2026 06:33:31.562,540.972
4,1 Jan 2026 16:47:31.208,1 Jan 2026 16:55:38.080,486.872
5,1 Jan 2026 18:25:07.661,1 Jan 2026 18:37:56.012,768.351
6,1 Jan 2026 20:07:10.788,1 Jan 2026 20:16:52.705,581.917

Statistics
"Min Duration",4,1 Jan 2026 16:47:31.208,1 Jan 2026 16:55:38.080,486.872
"Max Duration",5,1 Jan 2026 18:25:07.661,1 Jan 2026 18:37:56.012,768.351
"Mean Duration",,,,615.416
"Total Duration",,,,3692.496


"Access","Start Time (UTCG)","Stop Time (UTCG)","Duration (sec)"
1,1 Jan 2026 02:31:54.613,1 Jan 2026 02:37:25.257,330.644
2,1 Jan 2026 04:09:27.788,1 Jan 2026 04:21:48.546,740.758
3,1 Jan 2026 05:50:00.132,1 Jan 2026 06:01:25.303,685.171
4,1 Jan 2026 17:52:00.995,1 Jan 2026 18:04:22.296,741.301
5,1 Jan 2026 19:32:39.397,1 Jan 2026 19:44:10.617,691.220

Statistics
"Min Duration",1,1 Jan 2026 02:31:54.613,1 Jan 2026 02:37:25.257,330.644
"Max Duration",4,1 Jan 2026 17:52:00.995,1 Jan 2026 18:04:22.296,741.301
"Mean Duration",,,,637.819
"Total Duration",,,,3189.093


"Access","Start Time (UTCG)","Stop Time (UTCG)","Duration (sec)"
1,1 Jan 2026 01:20:10.090,1 Jan 2026 01:32:37.645,747.555
2,1 Jan 2026 03:04:11.277,1 Jan 2026 03:10:25.039,373.762
3,1 Jan 2026 08:14:37.927,1 Jan 2026 08:17:43.351,185.424
4,1 Jan 2026 09:51:18.529,1 Jan 2026 10:03:18.849,720.321
5,1 Jan 2026 11:31:28.797,1 Jan 2026 11:43:25.236,716.440
6,1 Jan 2026 23:33:55.868,1 Jan 2026 23:45:54.681,718.813

Statistics
"Min Duration",3,1 Jan 2026 08:14:37.927,1 Jan 2026 08:17:43.351,185.424
"Max Duration",1,1 Jan 2026 01:20:10.090,1 Jan 2026 01:32:37.645,747.555
"Mean Duration",,,,577.052
"Total Duration",,,,3462.314


"Access","Start Time (UTCG)","Stop Time (UTCG)","Duration (sec)"
1,1 Jan 2026 00:46:35.370,1 Jan 2026 00:59:23.901,768.531
2,1 Jan 2026 02:28:46.688,1 Jan 2026 02:38:15.825,569.137
3,1 Jan 2026 09:18:29.067,1 Jan 2026 09:29:01.184,632.118
4,1 Jan 2026 10:57:46.145,1 Jan 2026 11:10:29.387,763.242
5,1 Jan 2026 12:41:01.867,1 Jan 2026 12:47:07.106,365.240
6,1 Jan 2026 23:01:31.710,1 Jan 2026 23:11:42.349,610.639

Statistics
"Min Duration",5,1 Jan 2026 12:41:01.867,1 Jan 2026 12:47:07.106,365.240
"Max Duration",1,1 Jan 2026 00:46:35.370,1 Jan 2026 00:59:23.901,768.531
"Mean Duration",,,,618.151
"Total Duration",,,,3708.907


"Access","Start Time (UTCG)","Stop Time (UTCG)","Duration (sec)"
1,1 Jan 2026 00:13:26.359,1 Jan 2026 00:25:52.078,745.720
2,1 Jan 2026 01:54:11.972,1 Jan 2026 02:05:35.578,683.606
3,1 Jan 2026 08:46:01.388,1 Jan 2026 08:54:04.666,483.278
4,1 Jan 2026 10:24:24.100,1 Jan 2026 10:37:07.113,763.013
5,1 Jan 2026 12:05:42.421,1 Jan 2026 12:15:48.075,605.655
6,1 Jan 2026 22:30:09.112,1 Jan 2026 22:36:26.586,377.474

Statistics
"Min Duration",6,1 Jan 2026 22:30:09.112,1 Jan 2026 22:36:26.586,377.474
"Max Duration",4,1 Jan 2026 10:24:24.100,1 Jan 2026 10:37:07.113,763.013
"Mean Duration",,,,609.791
"Total Duration",,,,3658.745


"Access","Start Time (UTCG)","Stop Time (UTCG)","Duration (sec)"
1,1 Jan 2026 05:55:20.737,1 Jan 2026 06:07:25.834,725.097
2,1 Jan 2026 07:35:36.940,1 Jan 2026 07:47:28.996,712.056
3,1 Jan 2026 09:21:58.565,1 Jan 2026 09:23:30.282,91.717
4,1 Jan 2026 14:28:13.418,1 Jan 2026 14:34:58.265,404.846
5,1 Jan 2026 16:06:10.801,1 Jan 2026 16:18:43.168,752.366
6,1 Jan 2026 17:47:01.307,1 Jan 2026 17:57:56.751,655.443

Statistics
"Min Duration",3,1 Jan 2026 09:21:58.565,1 Jan 2026 09:23:30.282,91.717
"Max Duration",5,1 Jan 2026 16:06:10.801,1 Jan 2026 16:18:43.168,752.366
"Mean Duration",,,,556.921
"Total Duration",,,,3341.526


"Access","Start Time (UTCG)","Stop Time (UTCG)","Duration (sec)"
1,1 Jan 2026 05:22:53.122,1 Jan 2026 05:33:17.017,623.895
2,1 Jan 2026 07:01:45.349,1 Jan 2026 07:14:25.380,760.031
3,1 Jan 2026 08:45:01.319,1 Jan 2026 08:52:40.074,458.754
4,1 Jan 2026 15:33:10.957,1 Jan 2026 15:44:44.834,693.876
5,1 Jan 2026 17:13:00.893,1 Jan 2026 17:25:20.476,739.583

Statistics
"Min Duration",3,1 Jan 2026 08:45:01.319,1 Jan 2026 08:52:40.074,458.754
"Max Duration",2,1 Jan 2026 07:01:45.349,1 Jan 2026 07:14:25.380,760.031
"Mean Duration",,,,655.228
"Total Duration",,,,3276.139


"Access","Start Time (UTCG)","Stop Time (UTCG)","Duration (sec)"
1,1 Jan 2026 04:51:21.719,1 Jan 2026 04:58:10.498,408.780
2,1 Jan 2026 06:28:19.975,1 Jan 2026 06:41:05.543,765.568
3,1 Jan 2026 08:09:58.655,1 Jan 2026 08:20:16.249,617.594
4,1 Jan 2026 15:00:28.255,1 Jan 2026 15:10:14.681,586.426
5,1 Jan 2026 16:39:26.534,1 Jan 2026 16:52:14.710,768.176
6,1 Jan 2026 18:21:48.287,1 Jan 2026 18:29:46.951,478.663

Statistics
"Min Duration",1,1 Jan 2026 04:51:21.719,1 Jan 2026 04:58:10.498,408.780
"Max Duration",5,1 Jan 2026 16:39:26.534,1 Jan 2026 16:52:14.710,768.176
"Mean Duration",,,,604.201
"Total Duration",,,,3625.207


"Access","Start Time (UTCG)","Stop Time (UTCG)","Duration (sec)"
1,1 Jan 2026 00:43:29.465,1 Jan 2026 00:51:03.863,454.398
2,1 Jan 2026 11:05:07.334,1 Jan 2026 11:14:32.145,564.811
3,1 Jan 2026 12:43:24.608,1 Jan 2026 12:56:11.595,766.987
4,1 Jan 2026 14:26:02.180,1 Jan 2026 14:34:48.523,526.343
5,1 Jan 2026 21:15:06.796,1 Jan 2026 21:26:07.973,661.177
6,1 Jan 2026 22:54:37.764,1 Jan 2026 23:07:13.297,755.533

Statistics
"Min Duration",1,1 Jan 2026 00:43:29.465,1 Jan 2026 00:51:03.863,454.398
"Max Duration",3,1 Jan 2026 12:43:24.608,1 Jan 2026 12:56:11.595,766.987
"Mean Duration",,,,621.541
"Total Duration",,,,3729.248


"Access","Start Time (UTCG)","Stop Time (UTCG)","Duration (sec)"
1,1 Jan 2026 00:17:12.873,1 Jan 2026 00:27:22.116,609.242
2,1 Jan 2026 10:41:45.768,1 Jan 2026 10:47:54.547,368.780
3,1 Jan 2026 12:18:25.120,1 Jan 2026 12:31:08.562,763.441
4,1 Jan 2026 13:59:54.122,1 Jan 2026 14:10:25.112,630.990
5,1 Jan 2026 20:50:38.329,1 Jan 2026 21:00:08.778,570.449
6,1 Jan 2026 22:29:30.719,1 Jan 2026 22:42:19.242,768.522

Statistics
"Min Duration",2,1 Jan 2026 10:41:45.768,1 Jan 2026 10:47:54.547,368.780
"Max Duration",6,1 Jan 2026 22:29:30.719,1 Jan 2026 22:42:19.242,768.522
"Mean Duration",,,,618.571
"Total Duration",,,,3711.425


"Access","Start Time (UTCG)","Stop Time (UTCG)","Duration (sec)"
1,1 Jan 2026 00:00:00.000,1 Jan 2026 00:03:07.835,187.835
2,1 Jan 2026 11:53:40.371,1 Jan 2026 12:05:54.080,733.709
3,1 Jan 2026 13:34:07.650,1 Jan 2026 13:45:49.738,702.088
4,1 Jan 2026 20:26:26.189,1 Jan 2026 20:33:42.663,436.473
5,1 Jan 2026 22:04:33.789,1 Jan 2026 22:17:10.808,757.019
6,1 Jan 2026 23:45:34.272,1 Jan 2026 23:56:12.482,638.210

Statistics
"Min Duration",1,1 Jan 2026 00:00:00.000,1 Jan 2026 00:03:07.835,187.835
"Max Duration",5,1 Jan 2026 22:04:33.789,1 Jan 2026 22:17:10.808,757.019
"Mean Duration",,,,575.889
"Total Duration",,,,3455.334


"Access","Start Time (UTCG)","Stop Time (UTCG)","Duration (sec)"
1,1 Jan 2026 11:29:12.451,1 Jan 2026 11:40:24.477,672.026
2,1 Jan 2026 13:08:38.508,1 Jan 2026 13:21:05.074,746.566
3,1 Jan 2026 14:52:42.937,1 Jan 2026 14:58:50.378,367.442
4,1 Jan 2026 20:03:00.520,1 Jan 2026 20:06:18.086,197.566
5,1 Jan 2026 21:39:45.819,1 Jan 2026 21:51:47.575,721.756
6,1 Jan 2026 23:19:57.373,1 Jan 2026 23:31:52.092,714.719

Statistics
"Min Duration",4,1 Jan 2026 20:03:00.520,1 Jan 2026 20:06:18.086,197.566
"Max Duration",2,1 Jan 2026 13:08:38.508,1 Jan 2026 13:21:05.074,746.566
"Mean Duration",,,,570.012
"Total Duration",,,,3420.074


"Access","Start Time (UTCG)","Stop Time (UTCG)","Duration (sec)"
1,1 Jan 2026 00:30:12.827,1 Jan 2026 00:40:53.438,640.611
2,1 Jan 2026 02:09:33.738,1 Jan 2026 02:22:15.182,761.445
3,1 Jan 2026 03:53:04.081,1 Jan 2026 03:58:38.248,334.168
4,1 Jan 2026 14:13:12.677,1 Jan 2026 14:23:34.601,621.924
5,1 Jan 2026 15:52:03.712,1 Jan 2026 16:04:44.116,760.404
6,1 Jan 2026 17:35:18.200,1 Jan 2026 17:42:59.779,461.579

Statistics
"Min Duration",3,1 Jan 2026 03:53:04.081,1 Jan 2026 03:58:38.248,334.168
"Max Duration",2,1 Jan 2026 02:09:33.738,1 Jan 2026 02:22:15.182,761.445
"Mean Duration",,,,596.688
"Total Duration",,,,3580.130


"Access","Start Time (UTCG)","Stop Time (UTCG)","Duration (sec)"
1,1 Jan 2026 00:05:47.784,1 Jan 2026 00:14:48.189,540.404
2,1 Jan 2026 01:44:29.522,1 Jan 2026 01:57:17.328,767.806
3,1 Jan 2026 03:26:17.211,1 Jan 2026 03:35:25.642,548.431
4,1 Jan 2026 13:49:25.878,1 Jan 2026 13:57:23.262,477.384
5,1 Jan 2026 15:26:57.538,1 Jan 2026 15:39:45.698,768.160
6,1 Jan 2026 17:08:57.190,1 Jan 2026 17:18:44.296,587.106
7,1 Jan 2026 23:58:56.546,2 Jan 2026 00:00:00.000,63.454

Statistics
"Min Duration",7,1 Jan 2026 23:58:56.546,2 Jan 2026 00:00:00.000,63.454
"Max Duration",5,1 Jan 2026 15:26:57.538,1 Jan 2026 15:39:45.698,768.160
"Mean Duration",,,,536.106
"Total Duration",,,,3752.745


"Access","Start Time (UTCG)","Stop Time (UTCG)","Duration (sec)"
1,1 Jan 2026 01:19:35.011,1 Jan 2026 01:32:05.097,750.086
2,1 Jan 2026 03:00:21.408,1 Jan 2026 03:11:23.889,662.482
3,1 Jan 2026 13:27:21.418,1 Jan 2026 13:29:26.855,125.438
4,1 Jan 2026 15:02:05.792,1 Jan 2026 15:14:36.874,751.081
5,1 Jan 2026 16:43:01.403,1 Jan 2026 16:54:13.946,672.544
6,1 Jan 2026 23:34:35.560,1 Jan 2026 23:43:01.419,505.858

Statistics
"Min Duration",3,1 Jan 2026 13:27:21.418,1 Jan 2026 13:29:26.855,125.438
"Max Duration",4,1 Jan 2026 15:02:05.792,1 Jan 2026 15:14:36.874,751.081
"Mean Duration",,,,577.915
"Total Duration",,,,3467.489


"Access","Start Time (UTCG)","Stop Time (UTCG)","Duration (sec)"
1,1 Jan 2026 00:54:49.341,1 Jan 2026 01:06:37.778,708.437
2,1 Jan 2026 02:34:49.712,1 Jan 2026 02:46:58.159,728.447
3,1 Jan 2026 14:37:29.609,1 Jan 2026 14:49:14.944,705.335
4,1 Jan 2026 16:17:24.542,1 Jan 2026 16:29:33.459,728.917
5,1 Jan 2026 18:02:26.965,1 Jan 2026 18:06:39.283,252.318
6,1 Jan 2026 23:10:39.512,1 Jan 2026 23:16:12.964,333.453

Statistics
"Min Duration",5,1 Jan 2026 18:02:26.965,1 Jan 2026 18:06:39.283,252.318
"Max Duration",4,1 Jan 2026 16:17:24.542,1 Jan 2026 16:29:33.459,728.917
"Mean Duration",,,,576.151
"Total Duration",,,,3456.907


"Access","Start Time (UTCG)","Stop Time (UTCG)","Duration (sec)"
1,1 Jan 2026 03:38:35.100,1 Jan 2026 03:49:50.846,675.746
2,1 Jan 2026 05:18:13.981,1 Jan 2026 05:30:43.624,749.643
3,1 Jan 2026 07:03:52.392,1 Jan 2026 07:04:59.792,67.400
4,1 Jan 2026 17:21:24.234,1 Jan 2026 17:32:30.651,666.417
5,1 Jan 2026 19:00:45.982,1 Jan 2026 19:13:14.682,748.700
6,1 Jan 2026 20:44:43.388,1 Jan 2026 20:51:04.418,381.031

Statistics
"Min Duration",3,1 Jan 2026 07:03:52.392,1 Jan 2026 07:04:59.792,67.400
"Max Duration",2,1 Jan 2026 05:18:13.981,1 Jan 2026 05:30:43.624,749.643
"Mean Duration",,,,548.156
"Total Duration",,,,3288.938


"Access","Start Time (UTCG)","Stop Time (UTCG)","Duration (sec)"
1,1 Jan 2026 03:14:04.221,1 Jan 2026 03:23:56.030,591.809
2,1 Jan 2026 04:53:04.624,1 Jan 2026 05:05:52.556,767.932
3,1 Jan 2026 06:35:31.419,1 Jan 2026 06:43:19.722,468.303
4,1 Jan 2026 16:57:21.092,1 Jan 2026 17:06:36.283,555.191
5,1 Jan 2026 18:35:33.074,1 Jan 2026 18:48:20.589,767.515
6,1 Jan 2026 20:18:05.602,1 Jan 2026 20:27:00.391,534.789

Statistics
"Min Duration",3,1 Jan 2026 06:35:31.419,1 Jan 2026 06:43:19.722,468.303
"Max Duration",2,1 Jan 2026 04:53:04.624,1 Jan 2026 05:05:52.556,767.932
"Mean Duration",,,,614.257
"Total Duration",,,,3685.539


"Access","Start Time (UTCG)","Stop Time (UTCG)","Duration (sec)"
1,1 Jan 2026 02:49:47.840,1 Jan 2026 02:57:36.438,468.598
2,1 Jan 2026 04:28:05.767,1 Jan 2026 04:40:47.050,761.283
3,1 Jan 2026 06:09:18.023,1 Jan 2026 06:19:34.904,616.881
4,1 Jan 2026 16:34:04.658,1 Jan 2026 16:39:53.375,348.717
5,1 Jan 2026 18:10:34.561,1 Jan 2026 18:23:16.853,762.292
6,1 Jan 2026 19:51:59.229,1 Jan 2026 20:02:35.994,636.765

Statistics
"Min Duration",4,1 Jan 2026 16:34:04.658,1 Jan 2026 16:39:53.375,348.717
"Max Duration",5,1 Jan 2026 18:10:34.561,1 Jan 2026 18:23:16.853,762.292
"Mean Duration",,,,599.089
"Total Duration",,,,3594.537


"Access","Start Time (UTCG)","Stop Time (UTCG)","Duration (sec)"
1,1 Jan 2026 02:26:05.203,1 Jan 2026 02:30:31.375,266.171
2,1 Jan 2026 04:03:16.011,1 Jan 2026 04:15:26.921,730.911
3,1 Jan 2026 05:43:36.621,1 Jan 2026 05:55:19.032,702.411
4,1 Jan 2026 17:45:50.860,1 Jan 2026 17:58:01.491,730.631
5,1 Jan 2026 19:26:14.039,1 Jan 2026 19:37:59.947,705.908

Statistics
"Min Duration",1,1 Jan 2026 02:26:05.203,1 Jan 2026 02:30:31.375,266.171
"Max Duration",2,1 Jan 2026 04:03:16.011,1 Jan 2026 04:15:26.921,730.911
"Mean Duration",,,,627.206
"Total Duration",,,,3136.031


"Access","Start Time (UTCG)","Stop Time (UTCG)","Duration (sec)"
1,1 Jan 2026 00:00:00.000,1 Jan 2026 00:06:21.129,381.129
2,1 Jan 2026 06:46:59.513,1 Jan 2026 06:58:44.215,704.702
3,1 Jan 2026 08:26:57.071,1 Jan 2026 08:39:08.704,731.633
4,1 Jan 2026 20:29:40.739,1 Jan 2026 20:41:21.754,701.015
5,1 Jan 2026 22:09:31.522,1 Jan 2026 22:21:43.346,731.824
6,1 Jan 2026 23:54:23.957,1 Jan 2026 23:58:56.377,272.420

Statistics
"Min Duration",6,1 Jan 2026 23:54:23.957,1 Jan 2026 23:58:56.377,272.420
"Max Duration",5,1 Jan 2026 22:09:31.522,1 Jan 2026 22:21:43.346,731.824
"Mean Duration",,,,587.120
"Total Duration",,,,3522.722


"Access","Start Time (UTCG)","Stop Time (UTCG)","Duration (sec)"
1,1 Jan 2026 06:22:23.682,1 Jan 2026 06:32:58.618,634.936
2,1 Jan 2026 08:01:41.989,1 Jan 2026 08:14:24.666,762.677
3,1 Jan 2026 09:45:02.371,1 Jan 2026 09:50:57.660,355.289
4,1 Jan 2026 20:05:25.371,1 Jan 2026 20:15:39.842,614.471
5,1 Jan 2026 21:44:11.722,1 Jan 2026 21:56:53.402,761.680
6,1 Jan 2026 23:27:20.530,1 Jan 2026 23:35:12.373,471.843

Statistics
"Min Duration",3,1 Jan 2026 09:45:02.371,1 Jan 2026 09:50:57.660,355.289
"Max Duration",2,1 Jan 2026 08:01:41.989,1 Jan 2026 08:14:24.666,762.677
"Mean Duration",,,,600.149
"Total Duration",,,,3600.896


"Access","Start Time (UTCG)","Stop Time (UTCG)","Duration (sec)"
1,1 Jan 2026 05:57:59.592,1 Jan 2026 06:06:51.709,532.117
2,1 Jan 2026 07:36:38.486,1 Jan 2026 07:49:25.838,767.351
3,1 Jan 2026 09:18:21.221,1 Jan 2026 09:27:39.529,558.308
4,1 Jan 2026 19:41:41.511,1 Jan 2026 19:49:25.446,463.935
5,1 Jan 2026 21:19:06.522,1 Jan 2026 21:31:54.334,767.812
6,1 Jan 2026 23:01:01.589,1 Jan 2026 23:10:55.581,593.992

Statistics
"Min Duration",4,1 Jan 2026 19:41:41.511,1 Jan 2026 19:49:25.446,463.935
"Max Duration",5,1 Jan 2026 21:19:06.522,1 Jan 2026 21:31:54.334,767.812
"Mean Duration",,,,613.919
"Total Duration",,,,3683.515


"Access","Start Time (UTCG)","Stop Time (UTCG)","Duration (sec)"
1,1 Jan 2026 00:26:43.057,1 Jan 2026 00:29:41.285,178.228
2,1 Jan 2026 05:33:56.241,1 Jan 2026 05:40:12.994,376.752
3,1 Jan 2026 07:11:44.587,1 Jan 2026 07:24:12.621,748.035
4,1 Jan 2026 08:52:27.515,1 Jan 2026 09:03:35.745,668.230
5,1 Jan 2026 20:54:15.773,1 Jan 2026 21:06:44.728,748.955
6,1 Jan 2026 22:35:07.232,1 Jan 2026 22:46:24.455,677.223

Statistics
"Min Duration",1,1 Jan 2026 00:26:43.057,1 Jan 2026 00:29:41.285,178.228
"Max Duration",5,1 Jan 2026 20:54:15.773,1 Jan 2026 21:06:44.728,748.955
"Mean Duration",,,,566.237
"Total Duration",,,,3397.423


"Access","Start Time (UTCG)","Stop Time (UTCG)","Duration (sec)"
1,1 Jan 2026 01:24:23.775,1 Jan 2026 01:36:45.739,741.965
2,1 Jan 2026 03:08:43.073,1 Jan 2026 03:14:21.436,338.363
3,1 Jan 2026 08:18:22.560,1 Jan 2026 08:22:28.087,245.528
4,1 Jan 2026 09:55:25.907,1 Jan 2026 10:07:33.881,727.974
5,1 Jan 2026 11:35:43.452,1 Jan 2026 11:47:30.138,706.685
6,1 Jan 2026 23:38:01.429,1 Jan 2026 23:50:08.824,727.395

Statistics
"Min Duration",3,1 Jan 2026 08:18:22.560,1 Jan 2026 08:22:28.087,245.528
"Max Duration",1,1 Jan 2026 01:24:23.775,1 Jan 2026 01:36:45.739,741.965
"Mean Duration",,,,581.318
"Total Duration",,,,3487.909


"Access","Start Time (UTCG)","Stop Time (UTCG)","Duration (sec)"
1,1 Jan 2026 00:59:07.879,1 Jan 2026 01:11:53.477,765.598
2,1 Jan 2026 02:41:55.760,1 Jan 2026 02:50:24.518,508.758
3,1 Jan 2026 09:30:45.618,1 Jan 2026 09:41:56.642,671.024
4,1 Jan 2026 11:10:21.850,1 Jan 2026 11:22:53.586,751.736
5,1 Jan 2026 12:55:22.512,1 Jan 2026 12:57:47.237,144.725
6,1 Jan 2026 23:13:36.122,1 Jan 2026 23:24:36.719,660.598

Statistics
"Min Duration",5,1 Jan 2026 12:55:22.512,1 Jan 2026 12:57:47.237,144.725
"Max Duration",1,1 Jan 2026 00:59:07.879,1 Jan 2026 01:11:53.477,765.598
"Mean Duration",,,,583.740
"Total Duration",,,,3502.437


"Access","Start Time (UTCG)","Stop Time (UTCG)","Duration (sec)"
1,1 Jan 2026 00:34:06.438,1 Jan 2026 00:46:51.827,765.389
2,1 Jan 2026 02:15:44.197,1 Jan 2026 02:26:03.181,618.984
3,1 Jan 2026 09:06:15.527,1 Jan 2026 09:16:00.391,584.864
4,1 Jan 2026 10:45:13.278,1 Jan 2026 10:58:01.518,768.240
5,1 Jan 2026 12:27:33.703,1 Jan 2026 12:35:35.250,481.548
6,1 Jan 2026 22:49:35.041,1 Jan 2026 22:58:40.229,545.189

Statistics
"Min Duration",5,1 Jan 2026 12:27:33.703,1 Jan 2026 12:35:35.250,481.548
"Max Duration",4,1 Jan 2026 10:45:13.278,1 Jan 2026 10:58:01.518,768.240
"Mean Duration",,,,627.369
"Total Duration",,,,3764.214


"Access","Start Time (UTCG)","Stop Time (UTCG)","Duration (sec)"
1,1 Jan 2026 00:09:19.614,1 Jan 2026 00:21:39.061,739.447
2,1 Jan 2026 01:49:55.112,1 Jan 2026 02:01:29.204,694.093
3,1 Jan 2026 08:42:00.481,1 Jan 2026 08:49:38.709,458.228
4,1 Jan 2026 10:20:15.067,1 Jan 2026 10:32:55.035,759.969
5,1 Jan 2026 12:01:23.305,1 Jan 2026 12:11:47.558,624.253
6,1 Jan 2026 22:26:24.347,1 Jan 2026 22:31:51.384,327.037

Statistics
"Min Duration",6,1 Jan 2026 22:26:24.347,1 Jan 2026 22:31:51.384,327.037
"Max Duration",4,1 Jan 2026 10:20:15.067,1 Jan 2026 10:32:55.035,759.969
"Mean Duration",,,,600.504
"Total Duration",,,,3603.026


"Access","Start Time (UTCG)","Stop Time (UTCG)","Duration (sec)"
1,1 Jan 2026 02:53:07.599,1 Jan 2026 03:05:01.080,713.480
2,1 Jan 2026 04:33:10.793,1 Jan 2026 04:45:13.573,722.780
3,1 Jan 2026 06:18:36.124,1 Jan 2026 06:22:02.124,206.001
4,1 Jan 2026 11:26:10.363,1 Jan 2026 11:32:13.342,362.978
5,1 Jan 2026 13:03:54.210,1 Jan 2026 13:16:20.071,745.861
6,1 Jan 2026 14:44:33.721,1 Jan 2026 14:55:47.495,673.773

Statistics
"Min Duration",3,1 Jan 2026 06:18:36.124,1 Jan 2026 06:22:02.124,206.001
"Max Duration",5,1 Jan 2026 13:03:54.210,1 Jan 2026 13:16:20.071,745.861
"Mean Duration",,,,570.812
"Total Duration",,,,3424.873


"Access","Start Time (UTCG)","Stop Time (UTCG)","Duration (sec)"
1,1 Jan 2026 02:28:47.667,1 Jan 2026 02:39:23.713,636.045
2,1 Jan 2026 04:07:47.897,1 Jan 2026 04:20:25.419,757.523
3,1 Jan 2026 05:51:14.117,1 Jan 2026 05:58:34.165,440.048
4,1 Jan 2026 12:39:09.732,1 Jan 2026 12:50:50.580,700.849
5,1 Jan 2026 14:19:04.501,1 Jan 2026 14:31:19.171,734.670

Statistics
"Min Duration",3,1 Jan 2026 05:51:14.117,1 Jan 2026 05:58:34.165,440.048
"Max Duration",2,1 Jan 2026 04:07:47.897,1 Jan 2026 04:20:25.419,757.523
"Mean Duration",,,,653.827
"Total Duration",,,,3269.135


"Access","Start Time (UTCG)","Stop Time (UTCG)","Duration (sec)"
1,1 Jan 2026 02:04:55.499,1 Jan 2026 02:13:17.973,502.474
2,1 Jan 2026 03:42:39.771,1 Jan 2026 03:55:28.286,768.516
3,1 Jan 2026 05:24:48.737,1 Jan 2026 05:34:21.534,572.797
4,1 Jan 2026 12:14:34.584,1 Jan 2026 12:25:03.693,629.108
5,1 Jan 2026 13:53:50.302,1 Jan 2026 14:06:34.088,763.786
6,1 Jan 2026 15:37:01.429,1 Jan 2026 15:43:16.317,374.888

Statistics
"Min Duration",6,1 Jan 2026 15:37:01.429,1 Jan 2026 15:43:16.317,374.888
"Max Duration",2,1 Jan 2026 03:42:39.771,1 Jan 2026 03:55:28.286,768.516
"Mean Duration",,,,601.928
"Total Duration",,,,3611.569


"Access","Start Time (UTCG)","Stop Time (UTCG)","Duration (sec)"
1,1 Jan 2026 01:42:17.126,1 Jan 2026 01:45:55.971,218.845
2,1 Jan 2026 03:17:46.036,1 Jan 2026 03:30:21.001,754.965
3,1 Jan 2026 04:58:50.014,1 Jan 2026 05:09:52.806,662.792
4,1 Jan 2026 11:50:11.493,1 Jan 2026 11:58:55.088,523.595
5,1 Jan 2026 13:28:47.491,1 Jan 2026 13:41:34.286,766.795
6,1 Jan 2026 15:10:25.418,1 Jan 2026 15:19:53.228,567.810

Statistics
"Min Duration",1,1 Jan 2026 01:42:17.126,1 Jan 2026 01:45:55.971,218.845
"Max Duration",5,1 Jan 2026 13:28:47.491,1 Jan 2026 13:41:34.286,766.795
"Mean Duration",,,,582.467
"Total Duration",,,,3494.803


"Access","Start Time (UTCG)","Stop Time (UTCG)","Duration (sec)"
1,1 Jan 2026 06:01:29.958,1 Jan 2026 06:13:46.608,736.649
2,1 Jan 2026 07:42:01.343,1 Jan 2026 07:53:39.491,698.148
3,1 Jan 2026 14:34:13.262,1 Jan 2026 14:41:40.787,447.525
4,1 Jan 2026 16:12:24.408,1 Jan 2026 16:25:02.955,758.547
5,1 Jan 2026 17:53:28.727,1 Jan 2026 18:04:00.083,631.356

Statistics
"Min Duration",3,1 Jan 2026 14:34:13.262,1 Jan 2026 14:41:40.787,447.525
"Max Duration",4,1 Jan 2026 16:12:24.408,1 Jan 2026 16:25:02.955,758.547
"Mean Duration",,,,654.445
"Total Duration",,,,3272.226


"Access","Start Time (UTCG)","Stop Time (UTCG)","Duration (sec)"
1,1 Jan 2026 05:37:00.771,1 Jan 2026 05:48:18.205,677.435
2,1 Jan 2026 07:16:31.107,1 Jan 2026 07:28:55.427,744.320
3,1 Jan 2026 09:00:42.819,1 Jan 2026 09:06:36.063,353.243
4,1 Jan 2026 14:10:40.888,1 Jan 2026 14:14:23.770,222.882
5,1 Jan 2026 15:47:35.843,1 Jan 2026 15:59:40.766,724.924
6,1 Jan 2026 17:27:50.374,1 Jan 2026 17:39:41.157,710.783

Statistics
"Min Duration",4,1 Jan 2026 14:10:40.888,1 Jan 2026 14:14:23.770,222.882
"Max Duration",2,1 Jan 2026 07:16:31.107,1 Jan 2026 07:28:55.427,744.320
"Mean Duration",,,,572.265
"Total Duration",,,,3433.587


"Access","Start Time (UTCG)","Stop Time (UTCG)","Duration (sec)"
1,1 Jan 2026 05:12:53.752,1 Jan 2026 05:22:27.821,574.070
2,1 Jan 2026 06:51:16.214,1 Jan 2026 07:04:02.554,766.339
3,1 Jan 2026 08:33:58.898,1 Jan 2026 08:42:36.566,517.668
4,1 Jan 2026 15:22:56.186,1 Jan 2026 15:34:02.353,666.167
5,1 Jan 2026 17:02:29.774,1 Jan 2026 17:15:03.481,753.706
6,1 Jan 2026 18:47:07.393,1 Jan 2026 18:50:19.937,192.543

Statistics
"Min Duration",6,1 Jan 2026 18:47:07.393,1 Jan 2026 18:50:19.937,192.543
"Max Duration",2,1 Jan 2026 06:51:16.214,1 Jan 2026 07:04:02.554,766.339
"Mean Duration",,,,578.416
"Total Duration",,,,3470.494


"Access","Start Time (UTCG)","Stop Time (UTCG)","Duration (sec)"
1,1 Jan 2026 04:49:27.559,1 Jan 2026 04:55:55.027,387.467
2,1 Jan 2026 06:26:15.748,1 Jan 2026 06:39:00.218,764.471
3,1 Jan 2026 08:07:49.106,1 Jan 2026 08:18:14.173,625.067
4,1 Jan 2026 14:58:26.895,1 Jan 2026 15:08:04.645,577.750
5,1 Jan 2026 16:37:21.975,1 Jan 2026 16:50:10.412,768.437
6,1 Jan 2026 18:19:36.298,1 Jan 2026 18:27:50.487,494.189

Statistics
"Min Duration",1,1 Jan 2026 04:49:27.559,1 Jan 2026 04:55:55.027,387.467
"Max Duration",5,1 Jan 2026 16:37:21.975,1 Jan 2026 16:50:10.412,768.437
"Mean Duration",,,,602.897
"Total Duration",,,,3617.382


"Access","Start Time (UTCG)","Stop Time (UTCG)","Duration (sec)"
1,1 Jan 2026 07:34:45.974,1 Jan 2026 07:37:44.717,178.743
2,1 Jan 2026 09:09:55.876,1 Jan 2026 09:22:28.969,753.094
3,1 Jan 2026 10:50:55.665,1 Jan 2026 11:02:03.402,667.737
4,1 Jan 2026 17:42:23.474,1 Jan 2026 17:50:58.325,514.851
5,1 Jan 2026 19:20:56.546,1 Jan 2026 19:33:42.659,766.113
6,1 Jan 2026 21:02:29.801,1 Jan 2026 21:12:06.757,576.956

Statistics
"Min Duration",1,1 Jan 2026 07:34:45.974,1 Jan 2026 07:37:44.717,178.743
"Max Duration",5,1 Jan 2026 19:20:56.546,1 Jan 2026 19:33:42.659,766.113
"Mean Duration",,,,576.249
"Total Duration",,,,3457.493


"Access","Start Time (UTCG)","Stop Time (UTCG)","Duration (sec)"
1,1 Jan 2026 08:45:18.557,1 Jan 2026 08:57:08.049,709.491
2,1 Jan 2026 10:25:17.628,1 Jan 2026 10:37:23.535,725.906
3,1 Jan 2026 12:10:30.925,1 Jan 2026 12:14:21.294,230.369
4,1 Jan 2026 17:18:24.774,1 Jan 2026 17:24:13.344,348.570
5,1 Jan 2026 18:56:03.870,1 Jan 2026 19:08:27.451,743.581
6,1 Jan 2026 20:36:40.027,1 Jan 2026 20:47:59.143,679.116

Statistics
"Min Duration",3,1 Jan 2026 12:10:30.925,1 Jan 2026 12:14:21.294,230.369
"Max Duration",5,1 Jan 2026 18:56:03.870,1 Jan 2026 19:08:27.451,743.581
"Mean Duration",,,,572.839
"Total Duration",,,,3437.034


"Access","Start Time (UTCG)","Stop Time (UTCG)","Duration (sec)"
1,1 Jan 2026 08:21:00.108,1 Jan 2026 08:31:29.223,629.115
2,1 Jan 2026 09:59:55.770,1 Jan 2026 10:12:34.788,759.018
3,1 Jan 2026 11:43:16.058,1 Jan 2026 11:50:47.044,450.986
4,1 Jan 2026 18:31:19.992,1 Jan 2026 18:42:56.862,696.871
5,1 Jan 2026 20:11:11.998,1 Jan 2026 20:23:29.561,737.563

Statistics
"Min Duration",3,1 Jan 2026 11:43:16.058,1 Jan 2026 11:50:47.044,450.986
"Max Duration",2,1 Jan 2026 09:59:55.770,1 Jan 2026 10:12:34.788,759.018
"Mean Duration",,,,654.710
"Total Duration",,,,3273.552


"Access","Start Time (UTCG)","Stop Time (UTCG)","Duration (sec)"
1,1 Jan 2026 07:57:10.549,1 Jan 2026 08:05:20.762,490.213
2,1 Jan 2026 09:34:48.621,1 Jan 2026 09:47:37.016,768.394
3,1 Jan 2026 11:16:52.907,1 Jan 2026 11:26:32.948,580.041
4,1 Jan 2026 18:06:45.540,1 Jan 2026 18:17:08.678,623.138
5,1 Jan 2026 19:45:58.662,1 Jan 2026 19:58:43.439,764.777
6,1 Jan 2026 21:29:01.150,1 Jan 2026 21:35:34.330,393.180

Statistics
"Min Duration",6,1 Jan 2026 21:29:01.150,1 Jan 2026 21:35:34.330,393.180
"Max Duration",2,1 Jan 2026 09:34:48.621,1 Jan 2026 09:47:37.016,768.394
"Mean Duration",,,,603.291
"Total Duration",,,,3619.743


