data/STK Exports/Acess_EEZ_East-To-Satellite-Walker12.csv

"Access","Start Time (UTCG)","Stop Time (UTCG)","Duration (sec)"
1,1 Jan 2026 00:43:03.952,1 Jan 2026 00:52:40.747,576.795
2,1 Jan 2026 11:03:44.014,1 Jan 2026 11:18:12.134,868.120
3,1 Jan 2026 12:42:29.827,1 Jan 2026 12:59:02.604,992.776
4,1 Jan 2026 14:25:56.738,1 Jan 2026 14:37:53.250,716.512
5,1 Jan 2026 19:35:21.919,1 Jan 2026 19:45:38.816,616.897
6,1 Jan 2026 21:13:53.664,1 Jan 2026 21:28:47.500,893.836
7,1 Jan 2026 22:54:14.991,1 Jan 2026 23:09:11.703,896.712

Statistics
"Min Duration",1,1 Jan 2026 00:43:03.952,1 Jan 2026 00:52:40.747,576.795
"Max Duration",3,1 Jan 2026 12:42:29.827,1 Jan 2026 12:59:02.604,992.776
"Mean Duration",,,,794.521
"Total Duration",,,,5561.649


"Access","Start Time (UTCG)","Stop Time (UTCG)","Duration (sec)"
1,1 Jan 2026 00:08:35.824,1 Jan 2026 00:20:50.281,734.457
2,1 Jan 2026 10:31:52.697,1 Jan 2026 10:43:32.339,699.642
3,1 Jan 2026 12:09:06.177,1 Jan 2026 12:25:43.734,997.557
4,1 Jan 2026 13:50:43.912,1 Jan 2026 14:05:06.962,863.051
5,1 Jan 2026 15:36:41.634,1 Jan 2026 15:42:16.200,334.566
6,1 Jan 2026 19:03:12.938,1 Jan 2026 19:10:33.178,440.240
7,1 Jan 2026 20:40:51.927,1 Jan 2026 20:54:27.307,815.380
8,1 Jan 2026 22:20:31.352,1 Jan 2026 22:36:10.300,938.948

Statistics
"Min Duration",5,1 Jan 2026 15:36:41.634,1 Jan 2026 15:42:16.200,334.566
"Max Duration",3,1 Jan 2026 12:09:06.177,1 Jan 2026 12:25:43.734,997.557
"Mean Duration",,,,727.980
"Total Duration",,,,5823.840


"Access","Start Time (UTCG)","Stop Time (UTCG)","Duration (sec)"
1,1 Jan 2026 01:18:51.676,1 Jan 2026 01:23:38.888,287.212
2,1 Jan 2026 10:00:21.159,1 Jan 2026 10:07:12.478,411.319
3,1 Jan 2026 11:36:08.962,1 Jan 2026 11:52:09.452,960.490
4,1 Jan 2026 13:16:20.530,1 Jan 2026 13:32:09.815,949.285
5,1 Jan 2026 15:01:16.417,1 Jan 2026 15:10:21.172,544.755
6,1 Jan 2026 18:31:30.966,1 Jan 2026 18:34:30.241,179.274
7,1 Jan 2026 20:08:00.284,1 Jan 2026 20:20:12.463,732.179
8,1 Jan 2026 21:47:05.967,1 Jan 2026 22:02:42.678,936.712
9,1 Jan 2026 23:28:24.526,1 Jan 2026 23:41:42.408,797.882

Statistics
"Min Duration",6,1 Jan 2026 18:31:30.966,1 Jan 2026 18:34:30.241,179.274
"Max Duration",3,1 Jan 2026 11:36:08.962,1 Jan 2026 11:52:09.452,960.490
"Mean Duration",,,,644.345
"Total Duration",,,,5799.108


"Access","Start Time (UTCG)","Stop Time (UTCG)","Duration (sec)"
1,1 Jan 2026 01:56:45.537,1 Jan 2026 02:07:15.213,629.675
2,1 Jan 2026 03:35:20.971,1 Jan 2026 03:50:20.466,899.495
3,1 Jan 2026 05:15:46.967,1 Jan 2026 05:30:37.261,890.295
4,1 Jan 2026 06:59:23.289,1 Jan 2026 07:06:32.538,429.249
5,1 Jan 2026 15:43:22.433,1 Jan 2026 15:47:35.080,252.646
6,1 Jan 2026 17:18:09.119,1 Jan 2026 17:33:43.729,934.611
7,1 Jan 2026 18:57:50.663,1 Jan 2026 19:14:00.350,969.687
8,1 Jan 2026 20:42:22.676,1 Jan 2026 20:52:28.382,605.707

Statistics
"Min Duration",5,1 Jan 2026 15:43:22.433,1 Jan 2026 15:47:35.080,252.646
"Max Duration",7,1 Jan 2026 18:57:50.663,1 Jan 2026 19:14:00.350,969.687
"Mean Duration",,,,701.421
"Total Duration",,,,5611.365


"Access","Start Time (UTCG)","Stop Time (UTCG)","Duration (sec)"
1,1 Jan 2026 01:24:33.178,1 Jan 2026 01:32:12.937,459.759
2,1 Jan 2026 03:02:18.259,1 Jan 2026 03:16:01.168,822.909
3,1 Jan 2026 04:42:01.210,1 Jan 2026 04:57:38.287,937.077
4,1 Jan 2026 06:24:19.503,1 Jan 2026 06:34:56.854,637.351
5,1 Jan 2026 16:45:59.820,1 Jan 2026 16:59:34.455,814.634
6,1 Jan 2026 18:24:10.119,1 Jan 2026 18:40:49.141,999.022
7,1 Jan 2026 20:06:52.513,1 Jan 2026 20:19:51.768,779.255
8,1 Jan 2026 21:53:51.325,1 Jan 2026 21:56:07.951,136.626

Statistics
"Min Duration",8,1 Jan 2026 21:53:51.325,1 Jan 2026 21:56:07.951,136.626
"Max Duration",6,1 Jan 2026 18:24:10.119,1 Jan 2026 18:40:49.141,999.022
"Mean Duration",,,,698.329
"Total Duration",,,,5586.632


"Access","Start Time (UTCG)","Stop Time (UTCG)","Duration (sec)"
1,1 Jan 2026 00:52:46.774,1 Jan 2026 00:56:19.446,212.672
2,1 Jan 2026 02:29:25.571,1 Jan 2026 02:41:46.267,740.695
3,1 Jan 2026 04:08:34.382,1 Jan 2026 04:24:12.994,938.612
4,1 Jan 2026 05:49:58.429,1 Jan 2026 06:03:04.651,786.222
5,1 Jan 2026 16:14:09.179,1 Jan 2026 16:24:25.260,616.081
6,1 Jan 2026 17:50:55.858,1 Jan 2026 18:07:25.214,989.356
7,1 Jan 2026 19:32:01.124,1 Jan 2026 19:47:01.145,900.021
8,1 Jan 2026 21:17:35.073,1 Jan 2026 21:24:34.116,419.043

Statistics
"Min Duration",1,1 Jan 2026 00:52:46.774,1 Jan 2026 00:56:19.446,212.672
"Max Duration",6,1 Jan 2026 17:50:55.858,1 Jan 2026 18:07:25.214,989.356
"Mean Duration",,,,700.338
"Total Duration",,,,5602.703


"Access","Start Time (UTCG)","Stop Time (UTCG)","Duration (sec)"
1,1 Jan 2026 01:19:21.492,1 Jan 2026 01:35:26.641,965.149
2,1 Jan 2026 03:04:00.142,1 Jan 2026 03:13:50.979,590.837
3,1 Jan 2026 08:11:22.014,1 Jan 2026 08:23:07.473,705.459
4,1 Jan 2026 09:50:19.127,1 Jan 2026 10:05:48.226,929.099
5,1 Jan 2026 11:31:21.424,1 Jan 2026 11:45:11.893,830.469
6,1 Jan 2026 21:56:30.710,1 Jan 2026 22:04:55.099,504.389
7,1 Jan 2026 23:32:47.692,1 Jan 2026 23:49:02.951,975.259

Statistics
"Min Duration",6,1 Jan 2026 21:56:30.710,1 Jan 2026 22:04:55.099,504.389
"Max Duration",7,1 Jan 2026 23:32:47.692,1 Jan 2026 23:49:02.951,975.259
"Mean Duration",,,,785.809
"Total Duration",,,,5500.662


"Access","Start Time (UTCG)","Stop Time (UTCG)","Duration (sec)"
1,1 Jan 2026 00:45:38.504,1 Jan 2026 01:02:16.452,997.947
2,1 Jan 2026 02:28:31.160,1 Jan 2026 02:41:16.158,764.998
3,1 Jan 2026 04:15:50.370,1 Jan 2026 04:17:12.464,82.095
4,1 Jan 2026 07:38:48.956,1 Jan 2026 07:48:25.921,576.965
5,1 Jan 2026 09:17:09.814,1 Jan 2026 09:31:44.681,874.867
6,1 Jan 2026 10:57:18.584,1 Jan 2026 11:12:31.782,913.197
7,1 Jan 2026 12:40:19.082,1 Jan 2026 12:49:02.102,523.021
8,1 Jan 2026 23:00:12.660,1 Jan 2026 23:15:13.019,900.359

Statistics
"Min Duration",3,1 Jan 2026 04:15:50.370,1 Jan 2026 04:17:12.464,82.095
"Max Duration",1,1 Jan 2026 00:45:38.504,1 Jan 2026 01:02:16.452,997.947
"Mean Duration",,,,704.181
"Total Duration",,,,5633.448


"Access","Start Time (UTCG)","Stop Time (UTCG)","Duration (sec)"
1,1 Jan 2026 00:12:21.932,1 Jan 2026 00:28:53.832,991.900
2,1 Jan 2026 01:53:34.987,1 Jan 2026 02:08:26.542,891.555
3,1 Jan 2026 03:39:14.448,1 Jan 2026 03:45:53.852,399.404
4,1 Jan 2026 07:06:48.566,1 Jan 2026 07:13:09.633,381.066
5,1 Jan 2026 08:44:10.709,1 Jan 2026 08:57:24.049,793.340
6,1 Jan 2026 10:23:40.616,1 Jan 2026 10:39:23.057,942.441
7,1 Jan 2026 12:05:40.220,1 Jan 2026 12:17:13.143,692.923
8,1 Jan 2026 22:28:15.994,1 Jan 2026 22:40:48.355,752.361

Statistics
"Min Duration",4,1 Jan 2026 07:06:48.566,1 Jan 2026 07:13:09.633,381.066
"Max Duration",1,1 Jan 2026 00:12:21.932,1 Jan 2026 00:28:53.832,991.900
"Mean Duration",,,,730.624
"Total Duration",,,,5844.991


"Access","Start Time (UTCG)","Stop Time (UTCG)","Duration (sec)"
1,1 Jan 2026 04:17:48.400,1 Jan 2026 04:26:41.911,533.511
2,1 Jan 2026 05:54:13.342,1 Jan 2026 06:10:32.656,979.313
3,1 Jan 2026 07:34:55.098,1 Jan 2026 07:50:18.544,923.446
4,1 Jan 2026 09:20:12.208,1 Jan 2026 09:28:08.599,476.390
5,1 Jan 2026 12:49:06.011,1 Jan 2026 12:53:57.468,291.457
6,1 Jan 2026 14:26:04.149,1 Jan 2026 14:38:48.023,763.874
7,1 Jan 2026 16:05:21.697,1 Jan 2026 16:21:03.949,942.252
8,1 Jan 2026 17:47:01.331,1 Jan 2026 17:59:29.465,748.134

Statistics
"Min Duration",5,1 Jan 2026 12:49:06.011,1 Jan 2026 12:53:57.468,291.457
"Max Duration",2,1 Jan 2026 05:54:13.342,1 Jan 2026 06:10:32.656,979.313
"Mean Duration",,,,707.297
"Total Duration",,,,5658.378


"Access","Start Time (UTCG)","Stop Time (UTCG)","Duration (sec)"
1,1 Jan 2026 05:21:35.313,1 Jan 2026 05:36:45.014,909.701
2,1 Jan 2026 07:00:53.532,1 Jan 2026 07:17:15.057,981.525
3,1 Jan 2026 08:45:01.236,1 Jan 2026 08:55:53.336,652.100
4,1 Jan 2026 13:53:20.067,1 Jan 2026 14:04:24.528,664.461
5,1 Jan 2026 15:32:05.030,1 Jan 2026 15:47:19.246,914.216
6,1 Jan 2026 17:12:45.436,1 Jan 2026 17:27:13.349,867.913
7,1 Jan 2026 18:57:00.600,1 Jan 2026 19:02:30.870,330.270

Statistics
"Min Duration",7,1 Jan 2026 18:57:00.600,1 Jan 2026 19:02:30.870,330.270
"Max Duration",2,1 Jan 2026 07:00:53.532,1 Jan 2026 07:17:15.057,981.525
"Mean Duration",,,,760.027
"Total Duration",,,,5320.186


"Access","Start Time (UTCG)","Stop Time (UTCG)","Duration (sec)"
1,1 Jan 2026 04:49:36.106,1 Jan 2026 05:02:24.634,768.528
2,1 Jan 2026 06:27:20.388,1 Jan 2026 06:44:00.724,1000.336
3,1 Jan 2026 08:09:33.309,1 Jan 2026 08:23:12.046,818.736
4,1 Jan 2026 09:55:58.945,1 Jan 2026 09:59:57.190,238.245
5,1 Jan 2026 13:20:57.700,1 Jan 2026 13:29:31.619,513.918
6,1 Jan 2026 14:58:59.598,1 Jan 2026 15:13:04.881,845.283
7,1 Jan 2026 16:38:52.933,1 Jan 2026 16:54:22.131,929.198
8,1 Jan 2026 18:21:27.003,1 Jan 2026 18:31:19.576,592.574

Statistics
"Min Duration",4,1 Jan 2026 09:55:58.945,1 Jan 2026 09:59:57.190,238.245
"Max Duration",2,1 Jan 2026 06:27:20.388,1 Jan 2026 06:44:00.724,1000.336
"Mean Duration",,,,713.352
"Total Duration",,,,5706.818


