data/STK Exports/Acess_EEZ_West-To-Satellite-Walker32.csv

"Access","Start Time (UTCG)","Stop Time (UTCG)","Duration (sec)"
1,1 Jan 2026 00:37:21.607,1 Jan 2026 00:52:59.361,937.754
2,1 Jan 2026 11:03:06.791,1 Jan 2026 11:13:05.684,598.892
3,1 Jan 2026 12:40:31.463,1 Jan 2026 12:55:46.729,915.266
4,1 Jan 2026 14:22:05.010,1 Jan 2026 14:36:33.515,868.505
5,1 Jan 2026 16:04:18.297,1 Jan 2026 16:16:03.069,704.772
6,1 Jan 2026 17:48:45.850,1 Jan 2026 17:56:01.885,436.034
7,1 Jan 2026 19:30:59.387,1 Jan 2026 19:39:25.370,505.983
8,1 Jan 2026 21:10:13.607,1 Jan 2026 21:24:56.457,882.851
9,1 Jan 2026 22:49:51.001,1 Jan 2026 23:07:40.502,1069.500

Statistics
"Min Duration",6,1 Jan 2026 17:48:45.850,1 Jan 2026 17:56:01.885,436.034
"Max Duration",9,1 Jan 2026 22:49:51.001,1 Jan 2026 23:07:40.502,1069.500
"Mean Duration",,,,768.840
"Total Duration",,,,6919.557


"Access","Start Time (UTCG)","Stop Time (UTCG)","Duration (sec)"
1,1 Jan 2026 00:03:18.320,1 Jan 2026 00:20:27.519,1029.199
2,1 Jan 2026 01:50:10.492,1 Jan 2026 01:56:42.849,392.357
3,1 Jan 2026 10:32:12.182,1 Jan 2026 10:37:25.930,313.747
4,1 Jan 2026 12:07:27.480,1 Jan 2026 12:21:41.629,854.149
5,1 Jan 2026 13:47:59.599,1 Jan 2026 14:03:12.163,912.563
6,1 Jan 2026 15:30:00.255,1 Jan 2026 15:42:55.992,775.737
7,1 Jan 2026 17:13:47.222,1 Jan 2026 17:22:28.037,520.815
8,1 Jan 2026 18:57:35.013,1 Jan 2026 19:04:39.530,424.517
9,1 Jan 2026 20:37:10.361,1 Jan 2026 20:49:12.471,722.110
10,1 Jan 2026 22:16:31.325,1 Jan 2026 22:34:00.160,1048.835
11,1 Jan 2026 23:57:13.464,2 Jan 2026 00:00:00.000,166.536

Statistics
"Min Duration",11,1 Jan 2026 23:57:13.464,2 Jan 2026 00:00:00.000,166.536
"Max Duration",10,1 Jan 2026 22:16:31.325,1 Jan 2026 22:34:00.160,1048.835
"Mean Duration",,,,650.960
"Total Duration",,,,7160.565


"Access","Start Time (UTCG)","Stop Time (UTCG)","Duration (sec)"
1,1 Jan 2026 01:12:15.091,1 Jan 2026 01:25:15.364,780.273
2,1 Jan 2026 11:34:53.068,1 Jan 2026 11:47:29.885,756.817
3,1 Jan 2026 13:14:01.532,1 Jan 2026 13:29:38.788,937.257
4,1 Jan 2026 14:56:02.070,1 Jan 2026 15:09:47.097,825.027
5,1 Jan 2026 16:38:55.170,1 Jan 2026 16:49:11.842,616.672
6,1 Jan 2026 18:23:31.324,1 Jan 2026 18:30:05.980,394.656
7,1 Jan 2026 20:04:07.254,1 Jan 2026 20:14:08.116,600.862
8,1 Jan 2026 21:43:19.793,1 Jan 2026 21:59:49.496,989.703
9,1 Jan 2026 23:23:22.787,1 Jan 2026 23:40:54.489,1051.701

Statistics
"Min Duration",6,1 Jan 2026 18:23:31.324,1 Jan 2026 18:30:05.980,394.656
"Max Duration",9,1 Jan 2026 23:23:22.787,1 Jan 2026 23:40:54.489,1051.701
"Mean Duration",,,,772.552
"Total Duration",,,,6952.969


"Access","Start Time (UTCG)","Stop Time (UTCG)","Duration (sec)"
1,1 Jan 2026 00:10:22.521,1 Jan 2026 00:17:33.239,430.718
2,1 Jan 2026 01:52:26.773,1 Jan 2026 02:01:01.780,515.007
3,1 Jan 2026 03:31:40.583,1 Jan 2026 03:46:35.882,895.299
4,1 Jan 2026 05:11:20.077,1 Jan 2026 05:29:09.608,1069.531
5,1 Jan 2026 06:53:15.734,1 Jan 2026 07:07:23.556,847.823
6,1 Jan 2026 17:17:04.000,1 Jan 2026 17:28:54.524,710.524
7,1 Jan 2026 18:55:39.455,1 Jan 2026 19:11:14.331,934.876
8,1 Jan 2026 20:37:34.349,1 Jan 2026 20:51:34.864,840.515
9,1 Jan 2026 22:20:09.931,1 Jan 2026 22:31:00.372,650.442

Statistics
"Min Duration",1,1 Jan 2026 00:10:22.521,1 Jan 2026 00:17:33.239,430.718
"Max Duration",4,1 Jan 2026 05:11:20.077,1 Jan 2026 05:29:09.608,1069.531
"Mean Duration",,,,766.082
"Total Duration",,,,6894.734


"Access","Start Time (UTCG)","Stop Time (UTCG)","Duration (sec)"
1,1 Jan 2026 01:19:04.545,1 Jan 2026 01:26:15.792,431.247
2,1 Jan 2026 02:58:37.091,1 Jan 2026 03:10:52.877,735.786
3,1 Jan 2026 04:37:59.432,1 Jan 2026 04:55:31.712,1052.280
4,1 Jan 2026 06:18:46.263,1 Jan 2026 06:35:05.077,978.814
5,1 Jan 2026 16:45:37.617,1 Jan 2026 16:54:13.779,516.162
6,1 Jan 2026 18:22:18.833,1 Jan 2026 18:37:15.835,897.001
7,1 Jan 2026 20:03:34.084,1 Jan 2026 20:18:18.812,884.728
8,1 Jan 2026 21:45:39.645,1 Jan 2026 21:57:52.640,732.995
9,1 Jan 2026 23:29:54.729,1 Jan 2026 23:37:39.082,464.353

Statistics
"Min Duration",1,1 Jan 2026 01:19:04.545,1 Jan 2026 01:26:15.792,431.247
"Max Duration",3,1 Jan 2026 04:37:59.432,1 Jan 2026 04:55:31.712,1052.280
"Mean Duration",,,,743.707
"Total Duration",,,,6693.367


"Access","Start Time (UTCG)","Stop Time (UTCG)","Duration (sec)"
1,1 Jan 2026 00:45:05.160,1 Jan 2026 00:51:40.386,395.226
2,1 Jan 2026 02:25:34.019,1 Jan 2026 02:35:44.471,610.451
3,1 Jan 2026 04:04:47.220,1 Jan 2026 04:21:24.095,996.875
4,1 Jan 2026 05:44:53.287,1 Jan 2026 06:02:21.284,1047.997
5,1 Jan 2026 07:29:57.530,1 Jan 2026 07:39:19.513,561.983
6,1 Jan 2026 17:49:24.733,1 Jan 2026 18:03:08.056,823.323
7,1 Jan 2026 19:29:27.045,1 Jan 2026 19:44:53.638,926.593
8,1 Jan 2026 21:11:28.871,1 Jan 2026 21:24:45.192,796.321
9,1 Jan 2026 22:54:57.070,1 Jan 2026 23:04:13.069,555.999

Statistics
"Min Duration",1,1 Jan 2026 00:45:05.160,1 Jan 2026 00:51:40.386,395.226
"Max Duration",4,1 Jan 2026 05:44:53.287,1 Jan 2026 06:02:21.284,1047.997
"Mean Duration",,,,746.086
"Total Duration",,,,6714.770


"Access","Start Time (UTCG)","Stop Time (UTCG)","Duration (sec)"
1,1 Jan 2026 01:17:08.402,1 Jan 2026 01:32:44.437,936.035
2,1 Jan 2026 02:59:05.084,1 Jan 2026 03:13:01.741,836.657
3,1 Jan 2026 04:41:44.576,1 Jan 2026 04:52:26.969,642.393
4,1 Jan 2026 06:26:22.627,1 Jan 2026 06:33:03.340,400.713
5,1 Jan 2026 08:07:23.171,1 Jan 2026 08:16:58.573,575.402
6,1 Jan 2026 09:46:35.246,1 Jan 2026 10:02:41.456,966.210
7,1 Jan 2026 11:26:30.353,1 Jan 2026 11:44:10.987,1060.633
8,1 Jan 2026 13:09:50.164,1 Jan 2026 13:21:40.868,710.704
9,1 Jan 2026 23:31:24.817,1 Jan 2026 23:44:32.233,787.415

Statistics
"Min Duration",4,1 Jan 2026 06:26:22.627,1 Jan 2026 06:33:03.340,400.713
"Max Duration",7,1 Jan 2026 11:26:30.353,1 Jan 2026 11:44:10.987,1060.633
"Mean Duration",,,,768.462
"Total Duration",,,,6916.162


"Access","Start Time (UTCG)","Stop Time (UTCG)","Duration (sec)"
1,1 Jan 2026 00:43:45.470,1 Jan 2026 00:58:47.391,901.920
2,1 Jan 2026 02:25:05.619,1 Jan 2026 02:39:46.340,880.721
3,1 Jan 2026 04:07:12.675,1 Jan 2026 04:19:19.020,726.345
4,1 Jan 2026 05:51:30.924,1 Jan 2026 05:59:08.286,457.362
5,1 Jan 2026 07:34:12.270,1 Jan 2026 07:42:14.331,482.061
6,1 Jan 2026 09:13:30.034,1 Jan 2026 09:27:31.908,841.873
7,1 Jan 2026 10:53:02.329,1 Jan 2026 11:10:49.891,1067.562
8,1 Jan 2026 12:34:27.898,1 Jan 2026 12:49:29.868,901.970
9,1 Jan 2026 22:59:21.390,1 Jan 2026 23:10:14.916,653.526

Statistics
"Min Duration",4,1 Jan 2026 05:51:30.924,1 Jan 2026 05:59:08.286,457.362
"Max Duration",7,1 Jan 2026 10:53:02.329,1 Jan 2026 11:10:49.891,1067.562
"Mean Duration",,,,768.149
"Total Duration",,,,6913.340


"Access","Start Time (UTCG)","Stop Time (UTCG)","Duration (sec)"
1,1 Jan 2026 00:10:48.882,1 Jan 2026 00:24:40.277,831.395
2,1 Jan 2026 01:50:58.587,1 Jan 2026 02:06:22.174,923.586
3,1 Jan 2026 03:33:00.123,1 Jan 2026 03:46:11.685,791.562
4,1 Jan 2026 05:16:32.941,1 Jan 2026 05:25:40.460,547.518
5,1 Jan 2026 07:00:39.432,1 Jan 2026 07:07:30.105,410.673
6,1 Jan 2026 08:40:27.057,1 Jan 2026 08:51:51.976,684.920
7,1 Jan 2026 10:19:45.137,1 Jan 2026 10:37:01.885,1036.748
8,1 Jan 2026 12:00:14.968,1 Jan 2026 12:17:05.502,1010.534
9,1 Jan 2026 13:48:16.587,1 Jan 2026 13:52:30.157,253.570
10,1 Jan 2026 22:28:09.156,1 Jan 2026 22:35:07.113,417.957

Statistics
"Min Duration",9,1 Jan 2026 13:48:16.587,1 Jan 2026 13:52:30.157,253.570
"Max Duration",7,1 Jan 2026 10:19:45.137,1 Jan 2026 10:37:01.885,1036.748
"Mean Duration",,,,690.846
"Total Duration",,,,6908.464


"Access","Start Time (UTCG)","Stop Time (UTCG)","Duration (sec)"
1,1 Jan 2026 05:52:48.363,1 Jan 2026 06:06:05.156,796.794
2,1 Jan 2026 07:32:27.777,1 Jan 2026 07:48:01.200,933.423
3,1 Jan 2026 09:14:29.572,1 Jan 2026 09:27:59.279,809.707
4,1 Jan 2026 10:57:42.697,1 Jan 2026 11:07:25.117,582.420
5,1 Jan 2026 12:42:08.019,1 Jan 2026 12:48:46.014,397.995
6,1 Jan 2026 14:22:16.643,1 Jan 2026 14:32:56.779,640.136
7,1 Jan 2026 16:01:31.394,1 Jan 2026 16:18:27.381,1015.987
8,1 Jan 2026 17:41:46.719,1 Jan 2026 17:59:01.201,1034.482
9,1 Jan 2026 19:28:13.696,1 Jan 2026 19:35:28.822,435.126

Statistics
"Min Duration",5,1 Jan 2026 12:42:08.019,1 Jan 2026 12:48:46.014,397.995
"Max Duration",8,1 Jan 2026 17:41:46.719,1 Jan 2026 17:59:01.201,1034.482
"Mean Duration",,,,738.452
"Total Duration",,,,6646.070


"Access","Start Time (UTCG)","Stop Time (UTCG)","Duration (sec)"
1,1 Jan 2026 05:20:40.239,1 Jan 2026 05:31:49.305,669.067
2,1 Jan 2026 06:58:47.941,1 Jan 2026 07:14:16.747,928.806
3,1 Jan 2026 08:40:35.282,1 Jan 2026 08:54:47.718,852.436
4,1 Jan 2026 10:22:59.809,1 Jan 2026 10:34:14.443,674.634
5,1 Jan 2026 12:07:35.173,1 Jan 2026 12:14:30.003,414.829
6,1 Jan 2026 13:49:11.254,1 Jan 2026 13:58:12.014,540.760
7,1 Jan 2026 15:28:23.522,1 Jan 2026 15:43:52.183,928.661
8,1 Jan 2026 17:08:09.077,1 Jan 2026 17:25:56.754,1067.677
9,1 Jan 2026 18:50:33.614,1 Jan 2026 19:03:52.766,799.153

Statistics
"Min Duration",5,1 Jan 2026 12:07:35.173,1 Jan 2026 12:14:30.003,414.829
"Max Duration",8,1 Jan 2026 17:08:09.077,1 Jan 2026 17:25:56.754,1067.677
"Mean Duration",,,,764.003
"Total Duration",,,,6876.023


"Access","Start Time (UTCG)","Stop Time (UTCG)","Duration (sec)"
1,1 Jan 2026 04:49:24.176,1 Jan 2026 04:56:49.348,445.172
2,1 Jan 2026 06:25:34.447,1 Jan 2026 06:40:14.720,880.273
3,1 Jan 2026 08:06:32.770,1 Jan 2026 08:21:29.594,896.824
4,1 Jan 2026 09:48:34.741,1 Jan 2026 10:01:07.194,752.453
5,1 Jan 2026 11:32:38.394,1 Jan 2026 11:40:46.310,487.917
6,1 Jan 2026 13:15:54.896,1 Jan 2026 13:23:26.159,451.262
7,1 Jan 2026 14:55:19.453,1 Jan 2026 15:08:18.264,778.811
8,1 Jan 2026 16:34:45.544,1 Jan 2026 16:52:26.194,1060.650
9,1 Jan 2026 18:15:47.183,1 Jan 2026 18:31:36.052,948.869

Statistics
"Min Duration",1,1 Jan 2026 04:49:24.176,1 Jan 2026 04:56:49.348,445.172
"Max Duration",8,1 Jan 2026 16:34:45.544,1 Jan 2026 16:52:26.194,1060.650
"Mean Duration",,,,744.692
"Total Duration",,,,6702.232


"Access","Start Time (UTCG)","Stop Time (UTCG)","Duration (sec)"
1,1 Jan 2026 00:37:21.610,1 Jan 2026 00:52:59.364,937.754
2,1 Jan 2026 11:03:06.756,1 Jan 2026 11:13:05.671,598.915
3,1 Jan 2026 12:40:31.477,1 Jan 2026 12:55:46.704,915.227
4,1 Jan 2026 14:22:05.019,1 Jan 2026 14:36:33.558,868.539
5,1 Jan 2026 16:04:18.252,1 Jan 2026 16:16:03.230,704.978
6,1 Jan 2026 17:48:45.499,1 Jan 2026 17:56:02.274,436.775
7,1 Jan 2026 19:30:59.012,1 Jan 2026 19:39:25.599,506.586
8,1 Jan 2026 21:10:13.495,1 Jan 2026 21:24:56.552,883.056
9,1 Jan 2026 22:49:51.024,1 Jan 2026 23:07:40.528,1069.504

Statistics
"Min Duration",6,1 Jan 2026 17:48:45.499,1 Jan 2026 17:56:02.274,436.775
"Max Duration",9,1 Jan 2026 22:49:51.024,1 Jan 2026 23:07:40.528,1069.504
"Mean Duration",,,,769.037
"Total Duration",,,,6921.335


"Access","Start Time (UTCG)","Stop Time (UTCG)","Duration (sec)"
1,1 Jan 2026 00:11:46.346,1 Jan 2026 00:28:38.643,1012.297
2,1 Jan 2026 01:59:41.939,1 Jan 2026 02:04:08.810,266.871
3,1 Jan 2026 10:39:45.149,1 Jan 2026 10:46:35.543,410.394
4,1 Jan 2026 12:15:40.974,1 Jan 2026 12:30:13.589,872.615
5,1 Jan 2026 13:56:31.663,1 Jan 2026 14:11:33.453,901.791
6,1 Jan 2026 15:38:32.883,1 Jan 2026 15:51:12.937,760.054
7,1 Jan 2026 17:22:31.547,1 Jan 2026 17:30:49.652,498.105
8,1 Jan 2026 19:05:58.313,1 Jan 2026 19:13:20.883,442.570
9,1 Jan 2026 20:45:25.879,1 Jan 2026 20:58:06.308,760.429
10,1 Jan 2026 22:24:50.350,1 Jan 2026 22:42:27.864,1057.514

Statistics
"Min Duration",2,1 Jan 2026 01:59:41.939,1 Jan 2026 02:04:08.810,266.871
"Max Duration",10,1 Jan 2026 22:24:50.350,1 Jan 2026 22:42:27.864,1057.514
"Mean Duration",,,,698.264
"Total Duration",,,,6982.640


"Access","Start Time (UTCG)","Stop Time (UTCG)","Duration (sec)"
1,1 Jan 2026 00:00:00.000,1 Jan 2026 00:03:59.853,239.853
2,1 Jan 2026 01:30:44.935,1 Jan 2026 01:41:10.823,625.888
3,1 Jan 2026 11:51:06.011,1 Jan 2026 12:04:36.426,810.415
4,1 Jan 2026 13:30:56.888,1 Jan 2026 13:46:27.329,930.441
5,1 Jan 2026 15:12:58.799,1 Jan 2026 15:26:22.050,803.251
6,1 Jan 2026 16:56:19.523,1 Jan 2026 17:05:48.772,569.249
7,1 Jan 2026 18:40:38.844,1 Jan 2026 18:47:20.349,401.505
8,1 Jan 2026 20:20:38.802,1 Jan 2026 20:31:35.017,656.215
9,1 Jan 2026 21:59:54.695,1 Jan 2026 22:16:59.115,1024.420
10,1 Jan 2026 23:40:15.222,1 Jan 2026 23:57:21.549,1026.327

Statistics
"Min Duration",1,1 Jan 2026 00:00:00.000,1 Jan 2026 00:03:59.853,239.853
"Max Duration",10,1 Jan 2026 23:40:15.222,1 Jan 2026 23:57:21.549,1026.327
"Mean Duration",,,,708.756
"Total Duration",,,,7087.564


"Access","Start Time (UTCG)","Stop Time (UTCG)","Duration (sec)"
1,1 Jan 2026 01:03:23.548,1 Jan 2026 01:17:12.403,828.855
2,1 Jan 2026 11:26:50.509,1 Jan 2026 11:38:56.211,725.702
3,1 Jan 2026 13:05:36.547,1 Jan 2026 13:21:12.823,936.277
4,1 Jan 2026 14:47:33.659,1 Jan 2026 15:01:29.314,835.656
5,1 Jan 2026 16:30:14.245,1 Jan 2026 16:40:54.444,640.199
6,1 Jan 2026 18:14:52.398,1 Jan 2026 18:21:32.180,399.782
7,1 Jan 2026 19:55:50.731,1 Jan 2026 20:05:28.128,577.397
8,1 Jan 2026 21:35:02.762,1 Jan 2026 21:51:11.056,968.294
9,1 Jan 2026 23:14:58.463,1 Jan 2026 23:32:38.469,1060.007

Statistics
"Min Duration",6,1 Jan 2026 18:14:52.398,1 Jan 2026 18:21:32.180,399.782
"Max Duration",9,1 Jan 2026 23:14:58.463,1 Jan 2026 23:32:38.469,1060.007
"Mean Duration",,,,774.685
"Total Duration",,,,6972.169


"Access","Start Time (UTCG)","Stop Time (UTCG)","Duration (sec)"
1,1 Jan 2026 00:25:15.535,1 Jan 2026 00:39:29.566,854.031
2,1 Jan 2026 02:04:49.186,1 Jan 2026 02:22:37.567,1068.381
3,1 Jan 2026 03:46:20.396,1 Jan 2026 04:01:11.723,891.327
4,1 Jan 2026 14:11:00.176,1 Jan 2026 14:22:06.926,666.751
5,1 Jan 2026 15:49:06.460,1 Jan 2026 16:04:34.871,928.411
6,1 Jan 2026 17:30:53.428,1 Jan 2026 17:45:06.478,853.050
7,1 Jan 2026 19:13:17.531,1 Jan 2026 19:24:33.352,675.822
8,1 Jan 2026 20:57:52.756,1 Jan 2026 21:04:48.274,415.518
9,1 Jan 2026 22:39:30.296,1 Jan 2026 22:48:29.751,539.455

Statistics
"Min Duration",8,1 Jan 2026 20:57:52.756,1 Jan 2026 21:04:48.274,415.518
"Max Duration",2,1 Jan 2026 02:04:49.186,1 Jan 2026 02:22:37.567,1068.381
"Mean Duration",,,,765.861
"Total Duration",,,,6892.745


"Access","Start Time (UTCG)","Stop Time (UTCG)","Duration (sec)"
1,1 Jan 2026 00:00:28.180,1 Jan 2026 00:12:38.424,730.244
2,1 Jan 2026 01:39:49.973,1 Jan 2026 01:57:20.881,1050.909
3,1 Jan 2026 03:20:34.862,1 Jan 2026 03:36:57.308,982.446
4,1 Jan 2026 13:47:32.237,1 Jan 2026 13:55:59.284,507.047
5,1 Jan 2026 15:24:09.161,1 Jan 2026 15:39:04.013,894.852
6,1 Jan 2026 17:05:22.194,1 Jan 2026 17:20:08.581,886.387
7,1 Jan 2026 18:47:27.094,1 Jan 2026 18:59:42.851,735.757
8,1 Jan 2026 20:31:40.634,1 Jan 2026 20:39:28.147,467.513
9,1 Jan 2026 22:14:34.712,1 Jan 2026 22:22:25.411,470.699
10,1 Jan 2026 23:53:54.409,2 Jan 2026 00:00:00.000,365.591

Statistics
"Min Duration",10,1 Jan 2026 23:53:54.409,2 Jan 2026 00:00:00.000,365.591
"Max Duration",2,1 Jan 2026 01:39:49.973,1 Jan 2026 01:57:20.881,1050.909
"Mean Duration",,,,709.144
"Total Duration",,,,7091.444


"Access","Start Time (UTCG)","Stop Time (UTCG)","Duration (sec)"
1,1 Jan 2026 01:14:55.405,1 Jan 2026 01:31:47.474,1012.069
2,1 Jan 2026 02:55:08.636,1 Jan 2026 03:12:26.407,1037.771
3,1 Jan 2026 04:41:18.433,1 Jan 2026 04:49:01.516,463.083
4,1 Jan 2026 13:24:46.927,1 Jan 2026 13:28:38.097,231.170
5,1 Jan 2026 14:59:26.697,1 Jan 2026 15:13:28.634,841.938
6,1 Jan 2026 16:39:46.610,1 Jan 2026 16:55:05.502,918.892
7,1 Jan 2026 18:21:47.690,1 Jan 2026 18:34:52.399,784.709
8,1 Jan 2026 20:05:26.916,1 Jan 2026 20:14:22.530,535.614
9,1 Jan 2026 21:49:25.440,1 Jan 2026 21:56:21.981,416.541
10,1 Jan 2026 23:29:07.234,1 Jan 2026 23:40:48.455,701.221

Statistics
"Min Duration",4,1 Jan 2026 13:24:46.927,1 Jan 2026 13:28:38.097,231.170
"Max Duration",2,1 Jan 2026 02:55:08.636,1 Jan 2026 03:12:26.407,1037.771
"Mean Duration",,,,694.301
"Total Duration",,,,6943.007


"Access","Start Time (UTCG)","Stop Time (UTCG)","Duration (sec)"
1,1 Jan 2026 00:50:04.270,1 Jan 2026 01:05:53.440,949.170
2,1 Jan 2026 02:29:54.647,1 Jan 2026 02:47:39.323,1064.676
3,1 Jan 2026 04:12:44.733,1 Jan 2026 04:25:22.175,757.442
4,1 Jan 2026 14:35:01.333,1 Jan 2026 14:47:49.694,768.361
5,1 Jan 2026 16:14:18.469,1 Jan 2026 16:29:55.261,936.791
6,1 Jan 2026 17:56:19.709,1 Jan 2026 18:10:00.675,820.966
7,1 Jan 2026 19:39:18.071,1 Jan 2026 19:49:25.681,607.611
8,1 Jan 2026 21:23:51.803,1 Jan 2026 21:30:27.028,395.226
9,1 Jan 2026 23:04:19.871,1 Jan 2026 23:14:31.264,611.392

Statistics
"Min Duration",8,1 Jan 2026 21:23:51.803,1 Jan 2026 21:30:27.028,395.226
"Max Duration",2,1 Jan 2026 02:29:54.647,1 Jan 2026 02:47:39.323,1064.676
"Mean Duration",,,,767.959
"Total Duration",,,,6911.635


"Access","Start Time (UTCG)","Stop Time (UTCG)","Duration (sec)"
1,1 Jan 2026 00:12:33.444,1 Jan 2026 00:19:40.182,426.738
2,1 Jan 2026 01:54:31.170,1 Jan 2026 02:03:12.029,520.859
3,1 Jan 2026 03:33:44.489,1 Jan 2026 03:48:47.871,903.382
4,1 Jan 2026 05:13:25.278,1 Jan 2026 05:31:14.637,1069.359
5,1 Jan 2026 06:55:26.899,1 Jan 2026 07:09:24.435,837.536
6,1 Jan 2026 17:19:03.332,1 Jan 2026 17:31:02.285,718.953
7,1 Jan 2026 18:57:44.618,1 Jan 2026 19:13:20.334,935.716
8,1 Jan 2026 20:39:40.757,1 Jan 2026 20:53:38.596,837.839
9,1 Jan 2026 22:22:19.013,1 Jan 2026 22:33:03.857,644.844

Statistics
"Min Duration",1,1 Jan 2026 00:12:33.444,1 Jan 2026 00:19:40.182,426.738
"Max Duration",4,1 Jan 2026 05:13:25.278,1 Jan 2026 05:31:14.637,1069.359
"Mean Duration",,,,766.136
"Total Duration",,,,6895.226


"Access","Start Time (UTCG)","Stop Time (UTCG)","Duration (sec)"
1,1 Jan 2026 01:29:32.942,1 Jan 2026 01:37:07.327,454.385
2,1 Jan 2026 03:08:56.620,1 Jan 2026 03:22:02.047,785.427
3,1 Jan 2026 04:48:23.384,1 Jan 2026 05:06:05.032,1061.647
4,1 Jan 2026 06:29:27.446,1 Jan 2026 06:45:11.501,944.054
5,1 Jan 2026 16:55:22.205,1 Jan 2026 17:05:10.041,587.836
6,1 Jan 2026 18:32:40.544,1 Jan 2026 18:47:53.481,912.937
7,1 Jan 2026 20:14:11.780,1 Jan 2026 20:28:42.589,870.809
8,1 Jan 2026 21:56:23.708,1 Jan 2026 22:08:12.763,709.056
9,1 Jan 2026 23:40:49.450,1 Jan 2026 23:48:09.809,440.358

Statistics
"Min Duration",9,1 Jan 2026 23:40:49.450,1 Jan 2026 23:48:09.809,440.358
"Max Duration",3,1 Jan 2026 04:48:23.384,1 Jan 2026 05:06:05.032,1061.647
"Mean Duration",,,,751.834
"Total Duration",,,,6766.509


"Access","Start Time (UTCG)","Stop Time (UTCG)","Duration (sec)"
1,1 Jan 2026 01:04:18.242,1 Jan 2026 01:11:05.307,407.065
2,1 Jan 2026 02:44:09.540,1 Jan 2026 02:55:24.715,675.174
3,1 Jan 2026 04:23:26.821,1 Jan 2026 04:40:39.747,1032.925
4,1 Jan 2026 06:03:53.470,1 Jan 2026 06:20:49.493,1016.024
5,1 Jan 2026 07:51:36.688,1 Jan 2026 07:56:30.825,294.137
6,1 Jan 2026 16:32:02.358,1 Jan 2026 16:38:35.619,393.261
7,1 Jan 2026 18:07:51.043,1 Jan 2026 18:22:20.067,869.024
8,1 Jan 2026 19:48:38.126,1 Jan 2026 20:03:42.133,904.007
9,1 Jan 2026 21:30:39.085,1 Jan 2026 21:43:22.474,763.389
10,1 Jan 2026 23:14:35.405,1 Jan 2026 23:22:58.173,502.767

Statistics
"Min Duration",5,1 Jan 2026 07:51:36.688,1 Jan 2026 07:56:30.825,294.137
"Max Duration",3,1 Jan 2026 04:23:26.821,1 Jan 2026 04:40:39.747,1032.925
"Mean Duration",,,,685.777
"Total Duration",,,,6857.773


"Access","Start Time (UTCG)","Stop Time (UTCG)","Duration (sec)"
1,1 Jan 2026 00:38:37.303,1 Jan 2026 00:45:13.971,396.668
2,1 Jan 2026 02:19:21.836,1 Jan 2026 02:29:13.625,591.789
3,1 Jan 2026 03:58:34.220,1 Jan 2026 04:14:56.018,981.797
4,1 Jan 2026 05:38:34.364,1 Jan 2026 05:56:09.613,1055.249
5,1 Jan 2026 07:22:36.146,1 Jan 2026 07:33:25.040,648.894
6,1 Jan 2026 17:43:17.233,1 Jan 2026 17:56:42.658,805.424
7,1 Jan 2026 19:23:03.869,1 Jan 2026 19:38:35.528,931.659
8,1 Jan 2026 21:05:05.782,1 Jan 2026 21:18:31.498,805.716
9,1 Jan 2026 22:48:23.721,1 Jan 2026 22:57:57.882,574.161

Statistics
"Min Duration",1,1 Jan 2026 00:38:37.303,1 Jan 2026 00:45:13.971,396.668
"Max Duration",4,1 Jan 2026 05:38:34.364,1 Jan 2026 05:56:09.613,1055.249
"Mean Duration",,,,754.595
"Total Duration",,,,6791.358


"Access","Start Time (UTCG)","Stop Time (UTCG)","Duration (sec)"
1,1 Jan 2026 00:00:00.000,1 Jan 2026 00:08:38.907,518.907
2,1 Jan 2026 01:37:02.438,1 Jan 2026 01:48:04.922,662.484
3,1 Jan 2026 03:21:39.663,1 Jan 2026 03:28:27.972,408.309
4,1 Jan 2026 05:03:01.846,1 Jan 2026 05:12:15.805,553.959
5,1 Jan 2026 06:42:13.853,1 Jan 2026 06:57:57.738,943.885
6,1 Jan 2026 08:22:02.915,1 Jan 2026 08:39:48.542,1065.627
7,1 Jan 2026 10:04:45.616,1 Jan 2026 10:17:35.033,769.417
8,1 Jan 2026 20:27:13.321,1 Jan 2026 20:39:55.831,762.510
9,1 Jan 2026 22:06:26.051,1 Jan 2026 22:22:03.123,937.073
10,1 Jan 2026 23:48:26.973,2 Jan 2026 00:00:00.000,693.027

Statistics
"Min Duration",3,1 Jan 2026 03:21:39.663,1 Jan 2026 03:28:27.972,408.309
"Max Duration",6,1 Jan 2026 08:22:02.915,1 Jan 2026 08:39:48.542,1065.627
"Mean Duration",,,,731.520
"Total Duration",,,,7315.197


"Access","Start Time (UTCG)","Stop Time (UTCG)","Duration (sec)"
1,1 Jan 2026 01:11:09.847,1 Jan 2026 01:23:14.213,724.367
2,1 Jan 2026 02:55:29.100,1 Jan 2026 03:03:04.227,455.127
3,1 Jan 2026 04:38:07.948,1 Jan 2026 04:46:12.003,484.055
4,1 Jan 2026 06:17:25.245,1 Jan 2026 06:31:31.157,845.912
5,1 Jan 2026 07:56:57.945,1 Jan 2026 08:14:45.802,1067.856
6,1 Jan 2026 09:38:25.313,1 Jan 2026 09:53:23.802,898.489
7,1 Jan 2026 20:03:14.343,1 Jan 2026 20:14:12.312,657.970
8,1 Jan 2026 21:41:15.069,1 Jan 2026 21:56:41.893,926.824
9,1 Jan 2026 23:23:00.342,1 Jan 2026 23:37:15.638,855.296

Statistics
"Min Duration",2,1 Jan 2026 02:55:29.100,1 Jan 2026 03:03:04.227,455.127
"Max Duration",5,1 Jan 2026 07:56:57.945,1 Jan 2026 08:14:45.802,1067.856
"Mean Duration",,,,768.433
"Total Duration",,,,6915.894


"Access","Start Time (UTCG)","Stop Time (UTCG)","Duration (sec)"
1,1 Jan 2026 00:45:28.147,1 Jan 2026 00:58:23.869,775.722
2,1 Jan 2026 02:29:15.045,1 Jan 2026 02:37:56.145,521.100
3,1 Jan 2026 04:13:02.331,1 Jan 2026 04:20:07.840,425.509
4,1 Jan 2026 05:52:37.941,1 Jan 2026 06:04:40.729,722.789
5,1 Jan 2026 07:31:59.088,1 Jan 2026 07:49:28.054,1048.966
6,1 Jan 2026 09:12:41.465,1 Jan 2026 09:29:08.753,987.288
7,1 Jan 2026 19:39:47.524,1 Jan 2026 19:48:01.952,494.428
8,1 Jan 2026 21:16:18.754,1 Jan 2026 21:31:10.625,891.871
9,1 Jan 2026 22:57:28.793,1 Jan 2026 23:12:17.440,888.648

Statistics
"Min Duration",3,1 Jan 2026 04:13:02.331,1 Jan 2026 04:20:07.840,425.509
"Max Duration",5,1 Jan 2026 07:31:59.088,1 Jan 2026 07:49:28.054,1048.966
"Mean Duration",,,,750.702
"Total Duration",,,,6756.321


"Access","Start Time (UTCG)","Stop Time (UTCG)","Duration (sec)"
1,1 Jan 2026 00:19:57.874,1 Jan 2026 00:33:32.499,814.625
2,1 Jan 2026 02:03:04.860,1 Jan 2026 02:12:57.916,593.056
3,1 Jan 2026 03:47:34.312,1 Jan 2026 03:54:10.475,396.163
4,1 Jan 2026 05:27:50.746,1 Jan 2026 05:38:18.441,627.695
5,1 Jan 2026 07:07:04.792,1 Jan 2026 07:23:53.402,1008.610
6,1 Jan 2026 08:47:16.239,1 Jan 2026 09:04:36.653,1040.415
7,1 Jan 2026 10:33:10.933,1 Jan 2026 10:41:17.711,486.778
8,1 Jan 2026 19:17:13.976,1 Jan 2026 19:20:28.111,194.135
9,1 Jan 2026 20:51:37.351,1 Jan 2026 21:05:34.979,837.628
10,1 Jan 2026 22:31:53.016,1 Jan 2026 22:47:13.944,920.928

Statistics
"Min Duration",8,1 Jan 2026 19:17:13.976,1 Jan 2026 19:20:28.111,194.135
"Max Duration",6,1 Jan 2026 08:47:16.239,1 Jan 2026 09:04:36.653,1040.415
"Mean Duration",,,,692.003
"Total Duration",,,,6920.032


"Access","Start Time (UTCG)","Stop Time (UTCG)","Duration (sec)"
1,1 Jan 2026 01:21:20.614,1 Jan 2026 01:36:57.634,937.020
2,1 Jan 2026 03:03:19.391,1 Jan 2026 03:17:10.712,831.321
3,1 Jan 2026 04:46:04.842,1 Jan 2026 04:56:35.668,630.826
4,1 Jan 2026 06:30:42.442,1 Jan 2026 06:37:19.955,397.513
5,1 Jan 2026 08:11:31.482,1 Jan 2026 08:21:18.436,586.954
6,1 Jan 2026 09:50:43.726,1 Jan 2026 10:07:01.146,977.421
7,1 Jan 2026 11:30:42.354,1 Jan 2026 11:48:19.298,1056.944
8,1 Jan 2026 13:14:29.976,1 Jan 2026 13:25:39.057,669.081
9,1 Jan 2026 23:35:28.542,1 Jan 2026 23:48:48.879,800.337

Statistics
"Min Duration",4,1 Jan 2026 06:30:42.442,1 Jan 2026 06:37:19.955,397.513
"Max Duration",7,1 Jan 2026 11:30:42.354,1 Jan 2026 11:48:19.298,1056.944
"Mean Duration",,,,765.269
"Total Duration",,,,6887.417


"Access","Start Time (UTCG)","Stop Time (UTCG)","Duration (sec)"
1,1 Jan 2026 00:56:13.540,1 Jan 2026 01:11:33.091,919.551
2,1 Jan 2026 02:37:51.431,1 Jan 2026 02:52:15.440,864.008
3,1 Jan 2026 04:20:07.491,1 Jan 2026 04:31:44.179,696.688
4,1 Jan 2026 06:04:37.503,1 Jan 2026 06:11:47.459,429.957
5,1 Jan 2026 07:46:40.488,1 Jan 2026 07:55:16.570,516.082
6,1 Jan 2026 09:25:54.148,1 Jan 2026 09:40:50.952,896.804
7,1 Jan 2026 11:05:33.828,1 Jan 2026 11:23:23.332,1069.503
8,1 Jan 2026 12:47:30.498,1 Jan 2026 13:01:36.461,845.963
9,1 Jan 2026 23:11:16.297,1 Jan 2026 23:23:08.351,712.055

Statistics
"Min Duration",4,1 Jan 2026 06:04:37.503,1 Jan 2026 06:11:47.459,429.957
"Max Duration",7,1 Jan 2026 11:05:33.828,1 Jan 2026 11:23:23.332,1069.503
"Mean Duration",,,,772.290
"Total Duration",,,,6950.612


"Access","Start Time (UTCG)","Stop Time (UTCG)","Duration (sec)"
1,1 Jan 2026 00:31:21.049,1 Jan 2026 00:46:00.576,879.527
2,1 Jan 2026 02:12:18.680,1 Jan 2026 02:27:16.013,897.333
3,1 Jan 2026 03:54:20.628,1 Jan 2026 04:06:53.859,753.231
4,1 Jan 2026 05:38:23.858,1 Jan 2026 05:46:32.778,488.919
5,1 Jan 2026 07:21:41.477,1 Jan 2026 07:29:11.829,450.352
6,1 Jan 2026 09:01:06.374,1 Jan 2026 09:14:03.309,776.935
7,1 Jan 2026 10:40:32.350,1 Jan 2026 10:58:12.716,1060.366
8,1 Jan 2026 12:21:33.391,1 Jan 2026 12:37:23.625,950.235
9,1 Jan 2026 22:47:37.630,1 Jan 2026 22:57:14.227,576.597

Statistics
"Min Duration",5,1 Jan 2026 07:21:41.477,1 Jan 2026 07:29:11.829,450.352
"Max Duration",7,1 Jan 2026 10:40:32.350,1 Jan 2026 10:58:12.716,1060.366
"Mean Duration",,,,759.277
"Total Duration",,,,6833.496


"Access","Start Time (UTCG)","Stop Time (UTCG)","Duration (sec)"
1,1 Jan 2026 00:06:43.839,1 Jan 2026 00:20:23.914,820.074
2,1 Jan 2026 01:46:43.167,1 Jan 2026 02:02:10.824,927.656
3,1 Jan 2026 03:28:44.981,1 Jan 2026 03:42:03.125,798.144
4,1 Jan 2026 05:12:11.223,1 Jan 2026 05:21:30.644,559.421
5,1 Jan 2026 06:56:25.240,1 Jan 2026 07:03:10.270,405.030
6,1 Jan 2026 08:36:19.298,1 Jan 2026 08:47:28.032,668.734
7,1 Jan 2026 10:15:36.091,1 Jan 2026 10:32:46.286,1030.195
8,1 Jan 2026 11:56:00.657,1 Jan 2026 12:13:00.256,1019.599
9,1 Jan 2026 13:43:31.355,1 Jan 2026 13:48:51.517,320.162
10,1 Jan 2026 22:24:20.105,1 Jan 2026 22:30:35.126,375.021

Statistics
"Min Duration",9,1 Jan 2026 13:43:31.355,1 Jan 2026 13:48:51.517,320.162
"Max Duration",7,1 Jan 2026 10:15:36.091,1 Jan 2026 10:32:46.286,1030.195
"Mean Duration",,,,692.404
"Total Duration",,,,6924.037


"Access","Start Time (UTCG)","Stop Time (UTCG)","Duration (sec)"
1,1 Jan 2026 02:50:37.690,1 Jan 2026 03:03:37.382,779.693
2,1 Jan 2026 04:30:03.526,1 Jan 2026 04:45:39.404,935.878
3,1 Jan 2026 06:12:05.128,1 Jan 2026 06:25:41.901,816.772
4,1 Jan 2026 07:55:09.223,1 Jan 2026 08:05:07.146,597.923
5,1 Jan 2026 09:39:40.273,1 Jan 2026 09:46:15.919,395.646
6,1 Jan 2026 11:20:00.464,1 Jan 2026 11:30:22.612,622.148
7,1 Jan 2026 12:59:14.197,1 Jan 2026 13:15:59.236,1005.039
8,1 Jan 2026 14:39:23.887,1 Jan 2026 14:56:46.824,1042.937
9,1 Jan 2026 16:25:03.105,1 Jan 2026 16:33:33.534,510.428

Statistics
"Min Duration",5,1 Jan 2026 09:39:40.273,1 Jan 2026 09:46:15.919,395.646
"Max Duration",8,1 Jan 2026 14:39:23.887,1 Jan 2026 14:56:46.824,1042.937
"Mean Duration",,,,745.163
"Total Duration",,,,6706.464


"Access","Start Time (UTCG)","Stop Time (UTCG)","Duration (sec)"
1,1 Jan 2026 02:26:32.442,1 Jan 2026 02:37:55.778,683.336
2,1 Jan 2026 04:04:49.444,1 Jan 2026 04:20:20.626,931.182
3,1 Jan 2026 05:46:39.531,1 Jan 2026 06:00:48.116,848.585
4,1 Jan 2026 07:29:07.423,1 Jan 2026 07:40:14.389,666.966
5,1 Jan 2026 09:13:44.094,1 Jan 2026 09:20:34.649,410.555
6,1 Jan 2026 10:55:11.356,1 Jan 2026 11:04:20.478,549.121
7,1 Jan 2026 12:34:23.447,1 Jan 2026 12:50:01.892,938.445
8,1 Jan 2026 14:14:11.231,1 Jan 2026 14:31:57.699,1066.467
9,1 Jan 2026 15:56:46.975,1 Jan 2026 16:09:47.753,780.778

Statistics
"Min Duration",5,1 Jan 2026 09:13:44.094,1 Jan 2026 09:20:34.649,410.555
"Max Duration",8,1 Jan 2026 14:14:11.231,1 Jan 2026 14:31:57.699,1066.467
"Mean Duration",,,,763.937
"Total Duration",,,,6875.435


"Access","Start Time (UTCG)","Stop Time (UTCG)","Duration (sec)"
1,1 Jan 2026 02:03:01.616,1 Jan 2026 02:11:53.170,531.555
2,1 Jan 2026 03:39:50.177,1 Jan 2026 03:54:50.728,900.550
3,1 Jan 2026 05:21:08.946,1 Jan 2026 05:35:50.796,881.850
4,1 Jan 2026 07:03:15.544,1 Jan 2026 07:15:23.759,728.215
5,1 Jan 2026 08:47:32.951,1 Jan 2026 08:55:12.125,459.174
6,1 Jan 2026 10:30:16.924,1 Jan 2026 10:38:16.472,479.548
7,1 Jan 2026 12:09:34.961,1 Jan 2026 12:23:32.473,837.512
8,1 Jan 2026 13:49:06.735,1 Jan 2026 14:06:53.966,1067.231
9,1 Jan 2026 15:30:30.390,1 Jan 2026 15:45:35.888,905.499

Statistics
"Min Duration",5,1 Jan 2026 08:47:32.951,1 Jan 2026 08:55:12.125,459.174
"Max Duration",8,1 Jan 2026 13:49:06.735,1 Jan 2026 14:06:53.966,1067.231
"Mean Duration",,,,754.570
"Total Duration",,,,6791.134


"Access","Start Time (UTCG)","Stop Time (UTCG)","Duration (sec)"
1,1 Jan 2026 01:40:00.351,1 Jan 2026 01:44:50.469,290.119
2,1 Jan 2026 03:15:05.630,1 Jan 2026 03:29:15.906,850.276
3,1 Jan 2026 04:55:33.900,1 Jan 2026 05:10:48.523,914.623
4,1 Jan 2026 06:37:34.613,1 Jan 2026 06:50:33.383,778.770
5,1 Jan 2026 08:21:18.980,1 Jan 2026 08:30:04.899,525.919
6,1 Jan 2026 10:05:10.146,1 Jan 2026 10:12:12.517,422.371
7,1 Jan 2026 11:44:47.707,1 Jan 2026 11:56:43.168,715.461
8,1 Jan 2026 13:24:08.229,1 Jan 2026 13:41:35.146,1046.917
9,1 Jan 2026 15:04:48.149,1 Jan 2026 15:21:20.104,991.955

Statistics
"Min Duration",1,1 Jan 2026 01:40:00.351,1 Jan 2026 01:44:50.469,290.119
"Max Duration",8,1 Jan 2026 13:24:08.229,1 Jan 2026 13:41:35.146,1046.917
"Mean Duration",,,,726.268
"Total Duration",,,,6536.411


"Access","Start Time (UTCG)","Stop Time (UTCG)","Duration (sec)"
1,1 Jan 2026 05:58:54.880,1 Jan 2026 06:12:30.173,815.293
2,1 Jan 2026 07:38:49.989,1 Jan 2026 07:54:19.096,929.107
3,1 Jan 2026 09:20:51.865,1 Jan 2026 09:34:12.589,800.724
4,1 Jan 2026 11:04:15.357,1 Jan 2026 11:13:39.692,564.335
5,1 Jan 2026 12:48:32.111,1 Jan 2026 12:55:15.281,403.170
6,1 Jan 2026 14:28:29.052,1 Jan 2026 14:39:31.468,662.415
7,1 Jan 2026 16:07:45.382,1 Jan 2026 16:24:52.742,1027.360
8,1 Jan 2026 17:48:07.907,1 Jan 2026 18:05:10.942,1023.035
9,1 Jan 2026 19:35:25.711,1 Jan 2026 19:41:11.172,345.461

Statistics
"Min Duration",9,1 Jan 2026 19:35:25.711,1 Jan 2026 19:41:11.172,345.461
"Max Duration",7,1 Jan 2026 16:07:45.382,1 Jan 2026 16:24:52.742,1027.360
"Mean Duration",,,,730.100
"Total Duration",,,,6570.900


"Access","Start Time (UTCG)","Stop Time (UTCG)","Duration (sec)"
1,1 Jan 2026 05:34:37.822,1 Jan 2026 05:46:50.129,732.308
2,1 Jan 2026 07:13:28.542,1 Jan 2026 07:29:05.254,936.713
3,1 Jan 2026 08:55:26.537,1 Jan 2026 09:09:20.020,833.483
4,1 Jan 2026 10:38:09.522,1 Jan 2026 10:48:45.047,635.525
5,1 Jan 2026 12:22:47.470,1 Jan 2026 12:29:26.022,398.552
6,1 Jan 2026 14:03:41.115,1 Jan 2026 14:13:23.299,582.184
7,1 Jan 2026 15:42:53.236,1 Jan 2026 15:59:06.158,972.921
8,1 Jan 2026 17:22:50.389,1 Jan 2026 17:40:28.919,1058.530
9,1 Jan 2026 19:06:25.684,1 Jan 2026 19:17:52.870,687.185

Statistics
"Min Duration",5,1 Jan 2026 12:22:47.470,1 Jan 2026 12:29:26.022,398.552
"Max Duration",8,1 Jan 2026 17:22:50.389,1 Jan 2026 17:40:28.919,1058.530
"Mean Duration",,,,759.711
"Total Duration",,,,6837.401


"Access","Start Time (UTCG)","Stop Time (UTCG)","Duration (sec)"
1,1 Jan 2026 05:10:51.294,1 Jan 2026 05:21:01.136,609.842
2,1 Jan 2026 06:48:22.478,1 Jan 2026 07:03:39.907,917.429
3,1 Jan 2026 08:29:58.237,1 Jan 2026 08:44:24.509,866.272
4,1 Jan 2026 10:12:12.845,1 Jan 2026 10:23:53.702,700.856
5,1 Jan 2026 11:56:41.517,1 Jan 2026 12:03:54.828,433.310
6,1 Jan 2026 13:38:49.770,1 Jan 2026 13:47:21.088,511.318
7,1 Jan 2026 15:18:03.821,1 Jan 2026 15:32:53.847,890.026
8,1 Jan 2026 16:57:42.411,1 Jan 2026 17:15:31.963,1069.551
9,1 Jan 2026 18:39:34.328,1 Jan 2026 18:53:48.499,854.171

Statistics
"Min Duration",5,1 Jan 2026 11:56:41.517,1 Jan 2026 12:03:54.828,433.310
"Max Duration",8,1 Jan 2026 16:57:42.411,1 Jan 2026 17:15:31.963,1069.551
"Mean Duration",,,,761.420
"Total Duration",,,,6852.776


"Access","Start Time (UTCG)","Stop Time (UTCG)","Duration (sec)"
1,1 Jan 2026 04:47:28.423,1 Jan 2026 04:54:34.965,426.541
2,1 Jan 2026 06:23:30.972,1 Jan 2026 06:38:07.092,876.120
3,1 Jan 2026 08:04:25.180,1 Jan 2026 08:19:24.746,899.567
4,1 Jan 2026 09:46:26.730,1 Jan 2026 09:59:03.399,756.669
5,1 Jan 2026 11:30:27.699,1 Jan 2026 11:38:41.187,493.488
6,1 Jan 2026 13:13:49.939,1 Jan 2026 13:21:16.347,446.408
7,1 Jan 2026 14:53:16.122,1 Jan 2026 15:06:04.729,768.607
8,1 Jan 2026 16:32:41.339,1 Jan 2026 16:50:20.325,1058.986
9,1 Jan 2026 18:13:39.443,1 Jan 2026 18:29:35.663,956.219

Statistics
"Min Duration",1,1 Jan 2026 04:47:28.423,1 Jan 2026 04:54:34.965,426.541
"Max Duration",8,1 Jan 2026 16:32:41.339,1 Jan 2026 16:50:20.325,1058.986
"Mean Duration",,,,742.512
"Total Duration",,,,6682.605


"Access","Start Time (UTCG)","Stop Time (UTCG)","Duration (sec)"
1,1 Jan 2026 07:32:22.695,1 Jan 2026 07:36:45.242,262.548
2,1 Jan 2026 09:07:16.124,1 Jan 2026 09:21:22.279,846.155
3,1 Jan 2026 10:47:40.262,1 Jan 2026 11:02:57.029,916.767
4,1 Jan 2026 12:29:41.127,1 Jan 2026 12:42:42.894,781.767
5,1 Jan 2026 14:13:22.938,1 Jan 2026 14:22:13.691,530.753
6,1 Jan 2026 15:57:17.850,1 Jan 2026 16:04:17.230,419.380
7,1 Jan 2026 17:36:57.474,1 Jan 2026 17:48:45.741,708.267
8,1 Jan 2026 19:16:17.395,1 Jan 2026 19:33:42.168,1044.772
9,1 Jan 2026 20:56:54.909,1 Jan 2026 21:13:31.364,996.455
10,1 Jan 2026 22:46:07.293,1 Jan 2026 22:47:48.881,101.589

Statistics
"Min Duration",10,1 Jan 2026 22:46:07.293,1 Jan 2026 22:47:48.881,101.589
"Max Duration",8,1 Jan 2026 19:16:17.395,1 Jan 2026 19:33:42.168,1044.772
"Mean Duration",,,,660.845
"Total Duration",,,,6608.452


"Access","Start Time (UTCG)","Stop Time (UTCG)","Duration (sec)"
1,1 Jan 2026 08:42:49.462,1 Jan 2026 08:55:43.546,774.084
2,1 Jan 2026 10:22:10.962,1 Jan 2026 10:37:47.353,936.391
3,1 Jan 2026 12:04:12.420,1 Jan 2026 12:17:51.292,818.872
4,1 Jan 2026 13:47:13.632,1 Jan 2026 13:57:16.407,602.775
5,1 Jan 2026 15:31:46.105,1 Jan 2026 15:38:21.432,395.328
6,1 Jan 2026 17:12:10.171,1 Jan 2026 17:22:26.891,616.720
7,1 Jan 2026 18:51:23.620,1 Jan 2026 19:08:04.974,1001.353
8,1 Jan 2026 20:31:31.597,1 Jan 2026 20:48:56.916,1045.319
9,1 Jan 2026 22:16:54.945,1 Jan 2026 22:25:49.024,534.080

Statistics
"Min Duration",5,1 Jan 2026 15:31:46.105,1 Jan 2026 15:38:21.432,395.328
"Max Duration",8,1 Jan 2026 20:31:31.597,1 Jan 2026 20:48:56.916,1045.319
"Mean Duration",,,,747.214
"Total Duration",,,,6724.922


"Access","Start Time (UTCG)","Stop Time (UTCG)","Duration (sec)"
1,1 Jan 2026 08:18:46.210,1 Jan 2026 08:30:01.411,675.201
2,1 Jan 2026 09:56:57.919,1 Jan 2026 10:12:27.781,929.862
3,1 Jan 2026 11:38:46.491,1 Jan 2026 11:52:57.305,850.814
4,1 Jan 2026 13:21:12.451,1 Jan 2026 13:32:23.866,671.415
5,1 Jan 2026 15:05:48.456,1 Jan 2026 15:12:41.415,412.959
6,1 Jan 2026 16:47:20.840,1 Jan 2026 16:56:25.125,544.285
7,1 Jan 2026 18:26:33.051,1 Jan 2026 18:42:05.912,932.861
8,1 Jan 2026 20:06:19.579,1 Jan 2026 20:24:06.788,1067.208
9,1 Jan 2026 21:48:48.761,1 Jan 2026 22:02:00.339,791.577

Statistics
"Min Duration",5,1 Jan 2026 15:05:48.456,1 Jan 2026 15:12:41.415,412.959
"Max Duration",8,1 Jan 2026 20:06:19.579,1 Jan 2026 20:24:06.788,1067.208
"Mean Duration",,,,764.020
"Total Duration",,,,6876.182


"Access","Start Time (UTCG)","Stop Time (UTCG)","Duration (sec)"
1,1 Jan 2026 07:55:16.937,1 Jan 2026 08:03:56.355,519.418
2,1 Jan 2026 09:31:59.632,1 Jan 2026 09:46:57.384,897.752
3,1 Jan 2026 11:13:15.582,1 Jan 2026 11:27:59.702,884.120
4,1 Jan 2026 12:55:21.291,1 Jan 2026 13:07:33.301,732.010
5,1 Jan 2026 14:39:36.799,1 Jan 2026 14:47:20.102,463.303
6,1 Jan 2026 16:22:25.845,1 Jan 2026 16:30:20.940,475.095
7,1 Jan 2026 18:01:44.680,1 Jan 2026 18:15:33.490,828.809
8,1 Jan 2026 19:41:15.545,1 Jan 2026 19:59:02.066,1066.521
9,1 Jan 2026 21:22:35.612,1 Jan 2026 21:37:47.986,912.374

Statistics
"Min Duration",5,1 Jan 2026 14:39:36.799,1 Jan 2026 14:47:20.102,463.303
"Max Duration",8,1 Jan 2026 19:41:15.545,1 Jan 2026 19:59:02.066,1066.521
"Mean Duration",,,,753.267
"Total Duration",,,,6779.403


