data/STK Exports/Acess_GS_Ahmedabad-To-Satellite-Walker32.csv

"Access","Start Time (UTCG)","Stop Time (UTCG)","Duration (sec)"
1,1 Jan 2026 00:40:10.668,1 Jan 2026 00:47:29.570,438.902
2,1 Jan 2026 12:44:29.357,1 Jan 2026 12:56:05.271,695.914
3,1 Jan 2026 14:24:04.987,1 Jan 2026 14:36:37.409,752.422
4,1 Jan 2026 16:06:54.063,1 Jan 2026 16:15:55.879,541.817
5,1 Jan 2026 17:51:31.137,1 Jan 2026 17:55:40.314,249.177
6,1 Jan 2026 19:32:12.322,1 Jan 2026 19:39:43.661,451.339
7,1 Jan 2026 21:11:24.627,1 Jan 2026 21:23:19.648,715.021
8,1 Jan 2026 22:51:25.727,1 Jan 2026 23:03:54.187,748.459

Statistics
"Min Duration",5,1 Jan 2026 17:51:31.137,1 Jan 2026 17:55:40.314,249.177
"Max Duration",3,1 Jan 2026 14:24:04.987,1 Jan 2026 14:36:37.409,752.422
"Mean Duration",,,,574.131
"Total Duration",,,,4593.052


"Access","Start Time (UTCG)","Stop Time (UTCG)","Duration (sec)"
1,1 Jan 2026 00:05:22.061,1 Jan 2026 00:15:53.214,631.153
2,1 Jan 2026 12:12:17.340,1 Jan 2026 12:21:50.163,572.823
3,1 Jan 2026 13:50:29.630,1 Jan 2026 14:03:19.762,770.132
4,1 Jan 2026 15:32:18.280,1 Jan 2026 15:42:52.929,634.649
5,1 Jan 2026 17:16:43.987,1 Jan 2026 17:22:09.531,325.544
6,1 Jan 2026 18:59:03.883,1 Jan 2026 19:04:45.302,341.418
7,1 Jan 2026 20:38:18.690,1 Jan 2026 20:49:05.921,647.231
8,1 Jan 2026 22:17:54.845,1 Jan 2026 22:30:44.883,770.037
9,1 Jan 2026 23:59:36.770,2 Jan 2026 00:00:00.000,23.230

Statistics
"Min Duration",9,1 Jan 2026 23:59:36.770,2 Jan 2026 00:00:00.000,23.230
"Max Duration",3,1 Jan 2026 13:50:29.630,1 Jan 2026 14:03:19.762,770.132
"Mean Duration",,,,524.024
"Total Duration",,,,4716.217


"Access","Start Time (UTCG)","Stop Time (UTCG)","Duration (sec)"
1,1 Jan 2026 11:41:23.538,1 Jan 2026 11:46:19.805,296.267
2,1 Jan 2026 13:17:16.642,1 Jan 2026 13:29:51.032,754.390
3,1 Jan 2026 14:58:01.458,1 Jan 2026 15:09:47.582,706.124
4,1 Jan 2026 16:41:45.354,1 Jan 2026 16:48:59.481,434.127
5,1 Jan 2026 18:25:37.814,1 Jan 2026 18:29:54.496,256.682
6,1 Jan 2026 20:05:15.546,1 Jan 2026 20:14:32.920,557.374
7,1 Jan 2026 21:44:35.762,1 Jan 2026 21:57:12.891,757.128
8,1 Jan 2026 23:25:14.943,1 Jan 2026 23:36:36.890,681.947

Statistics
"Min Duration",5,1 Jan 2026 18:25:37.814,1 Jan 2026 18:29:54.496,256.682
"Max Duration",7,1 Jan 2026 21:44:35.762,1 Jan 2026 21:57:12.891,757.128
"Mean Duration",,,,555.505
"Total Duration",,,,4444.039


"Access","Start Time (UTCG)","Stop Time (UTCG)","Duration (sec)"
1,1 Jan 2026 00:13:05.225,1 Jan 2026 00:17:12.093,246.868
2,1 Jan 2026 01:53:39.090,1 Jan 2026 02:01:20.909,461.819
3,1 Jan 2026 03:32:52.010,1 Jan 2026 03:44:52.058,720.048
4,1 Jan 2026 05:12:56.099,1 Jan 2026 05:25:20.582,744.483
5,1 Jan 2026 06:57:50.169,1 Jan 2026 06:59:48.068,117.899
6,1 Jan 2026 18:59:09.887,1 Jan 2026 19:11:28.705,738.818
7,1 Jan 2026 20:39:30.506,1 Jan 2026 20:51:36.591,726.085
8,1 Jan 2026 22:22:55.415,1 Jan 2026 22:30:50.065,474.650

Statistics
"Min Duration",5,1 Jan 2026 06:57:50.169,1 Jan 2026 06:59:48.068,117.899
"Max Duration",4,1 Jan 2026 05:12:56.099,1 Jan 2026 05:25:20.582,744.483
"Mean Duration",,,,528.834
"Total Duration",,,,4230.671


"Access","Start Time (UTCG)","Stop Time (UTCG)","Duration (sec)"
1,1 Jan 2026 01:20:31.333,1 Jan 2026 01:26:22.999,351.667
2,1 Jan 2026 02:59:45.629,1 Jan 2026 03:10:40.159,654.531
3,1 Jan 2026 04:39:23.827,1 Jan 2026 04:52:13.445,769.619
4,1 Jan 2026 06:21:13.810,1 Jan 2026 06:30:00.446,526.637
5,1 Jan 2026 18:26:33.669,1 Jan 2026 18:37:34.290,660.621
6,1 Jan 2026 20:05:41.608,1 Jan 2026 20:18:23.995,762.387
7,1 Jan 2026 21:48:09.181,1 Jan 2026 21:57:47.066,577.885
8,1 Jan 2026 23:32:47.096,1 Jan 2026 23:37:17.768,270.672

Statistics
"Min Duration",8,1 Jan 2026 23:32:47.096,1 Jan 2026 23:37:17.768,270.672
"Max Duration",3,1 Jan 2026 04:39:23.827,1 Jan 2026 04:52:13.445,769.619
"Mean Duration",,,,571.752
"Total Duration",,,,4574.019


"Access","Start Time (UTCG)","Stop Time (UTCG)","Duration (sec)"
1,1 Jan 2026 00:47:07.555,1 Jan 2026 00:51:30.559,263.005
2,1 Jan 2026 02:26:42.254,1 Jan 2026 02:36:08.847,566.593
3,1 Jan 2026 04:06:03.804,1 Jan 2026 04:18:43.408,759.605
4,1 Jan 2026 05:46:47.541,1 Jan 2026 05:58:00.534,672.993
5,1 Jan 2026 17:54:40.438,1 Jan 2026 18:03:01.759,501.321
6,1 Jan 2026 19:32:14.139,1 Jan 2026 19:45:02.782,768.644
7,1 Jan 2026 21:13:40.040,1 Jan 2026 21:24:43.476,663.435
8,1 Jan 2026 22:57:52.729,1 Jan 2026 23:03:56.883,364.154

Statistics
"Min Duration",1,1 Jan 2026 00:47:07.555,1 Jan 2026 00:51:30.559,263.005
"Max Duration",6,1 Jan 2026 19:32:14.139,1 Jan 2026 19:45:02.782,768.644
"Mean Duration",,,,569.969
"Total Duration",,,,4559.750


"Access","Start Time (UTCG)","Stop Time (UTCG)","Duration (sec)"
1,1 Jan 2026 01:20:35.048,1 Jan 2026 01:32:58.256,743.208
2,1 Jan 2026 03:01:01.667,1 Jan 2026 03:13:03.167,721.500
3,1 Jan 2026 04:44:31.252,1 Jan 2026 04:52:16.194,464.942
4,1 Jan 2026 06:28:41.497,1 Jan 2026 06:32:47.883,246.386
5,1 Jan 2026 08:08:32.238,1 Jan 2026 08:17:22.425,530.187
6,1 Jan 2026 09:47:49.703,1 Jan 2026 10:00:18.166,748.463
7,1 Jan 2026 11:28:16.931,1 Jan 2026 11:40:02.387,705.455
8,1 Jan 2026 23:37:15.573,1 Jan 2026 23:43:58.649,403.076

Statistics
"Min Duration",4,1 Jan 2026 06:28:41.497,1 Jan 2026 06:32:47.883,246.386
"Max Duration",6,1 Jan 2026 09:47:49.703,1 Jan 2026 10:00:18.166,748.463
"Mean Duration",,,,570.402
"Total Duration",,,,4563.218


"Access","Start Time (UTCG)","Stop Time (UTCG)","Duration (sec)"
1,1 Jan 2026 00:47:55.974,1 Jan 2026 00:59:06.161,670.187
2,1 Jan 2026 02:27:10.913,1 Jan 2026 02:39:51.206,760.293
3,1 Jan 2026 04:09:43.760,1 Jan 2026 04:19:13.071,569.312
4,1 Jan 2026 05:54:21.803,1 Jan 2026 05:58:46.860,265.057
5,1 Jan 2026 07:35:28.149,1 Jan 2026 07:42:29.849,421.700
6,1 Jan 2026 09:14:40.171,1 Jan 2026 09:26:19.294,699.123
7,1 Jan 2026 10:54:33.576,1 Jan 2026 11:07:11.765,758.189
8,1 Jan 2026 12:37:41.953,1 Jan 2026 12:43:29.479,347.526

Statistics
"Min Duration",4,1 Jan 2026 05:54:21.803,1 Jan 2026 05:58:46.860,265.057
"Max Duration",2,1 Jan 2026 02:27:10.913,1 Jan 2026 02:39:51.206,760.293
"Mean Duration",,,,561.423
"Total Duration",,,,4491.386


"Access","Start Time (UTCG)","Stop Time (UTCG)","Duration (sec)"
1,1 Jan 2026 00:15:57.578,1 Jan 2026 00:24:38.520,520.942
2,1 Jan 2026 01:53:41.493,1 Jan 2026 02:06:30.925,769.432
3,1 Jan 2026 03:35:12.985,1 Jan 2026 03:46:09.648,656.663
4,1 Jan 2026 05:19:28.973,1 Jan 2026 05:25:23.741,354.768
5,1 Jan 2026 07:02:16.471,1 Jan 2026 07:07:31.496,315.025
6,1 Jan 2026 08:41:35.162,1 Jan 2026 08:52:00.191,625.029
7,1 Jan 2026 10:21:06.352,1 Jan 2026 10:33:56.032,769.680
8,1 Jan 2026 12:02:27.520,1 Jan 2026 12:12:19.521,592.002

Statistics
"Min Duration",5,1 Jan 2026 07:02:16.471,1 Jan 2026 07:07:31.496,315.025
"Max Duration",7,1 Jan 2026 10:21:06.352,1 Jan 2026 10:33:56.032,769.680
"Mean Duration",,,,575.443
"Total Duration",,,,4603.541


"Access","Start Time (UTCG)","Stop Time (UTCG)","Duration (sec)"
1,1 Jan 2026 05:58:29.105,1 Jan 2026 06:05:40.042,430.937
2,1 Jan 2026 07:35:27.199,1 Jan 2026 07:48:11.598,764.399
3,1 Jan 2026 09:16:35.516,1 Jan 2026 09:27:58.533,683.017
4,1 Jan 2026 11:00:36.448,1 Jan 2026 11:07:10.636,394.188
5,1 Jan 2026 12:43:58.535,1 Jan 2026 12:48:40.998,282.463
6,1 Jan 2026 14:23:24.644,1 Jan 2026 14:33:17.193,592.549
7,1 Jan 2026 16:02:49.810,1 Jan 2026 16:15:35.246,765.436
8,1 Jan 2026 17:43:47.889,1 Jan 2026 17:54:30.450,642.561

Statistics
"Min Duration",5,1 Jan 2026 12:43:58.535,1 Jan 2026 12:48:40.998,282.463
"Max Duration",7,1 Jan 2026 16:02:49.810,1 Jan 2026 16:15:35.246,765.436
"Mean Duration",,,,569.444
"Total Duration",,,,4555.550


"Access","Start Time (UTCG)","Stop Time (UTCG)","Duration (sec)"
1,1 Jan 2026 07:02:29.972,1 Jan 2026 07:14:32.964,722.991
2,1 Jan 2026 08:42:31.604,1 Jan 2026 08:54:50.376,738.772
3,1 Jan 2026 10:25:41.297,1 Jan 2026 10:34:05.545,504.249
4,1 Jan 2026 12:10:08.956,1 Jan 2026 12:14:10.455,241.500
5,1 Jan 2026 13:50:21.810,1 Jan 2026 13:58:33.405,491.595
6,1 Jan 2026 15:29:36.121,1 Jan 2026 15:41:49.664,733.543
7,1 Jan 2026 17:09:49.237,1 Jan 2026 17:21:59.501,730.264

Statistics
"Min Duration",4,1 Jan 2026 12:10:08.956,1 Jan 2026 12:14:10.455,241.500
"Max Duration",2,1 Jan 2026 08:42:31.604,1 Jan 2026 08:54:50.376,738.772
"Mean Duration",,,,594.702
"Total Duration",,,,4162.914


"Access","Start Time (UTCG)","Stop Time (UTCG)","Duration (sec)"
1,1 Jan 2026 06:30:03.236,1 Jan 2026 06:40:30.768,627.532
2,1 Jan 2026 08:08:48.522,1 Jan 2026 08:21:35.783,767.261
3,1 Jan 2026 09:50:59.396,1 Jan 2026 10:01:02.746,603.350
4,1 Jan 2026 11:35:33.716,1 Jan 2026 11:40:25.981,292.266
5,1 Jan 2026 13:17:16.067,1 Jan 2026 13:23:37.239,381.171
6,1 Jan 2026 14:56:28.557,1 Jan 2026 15:07:43.340,674.783
7,1 Jan 2026 16:36:12.653,1 Jan 2026 16:48:59.213,766.560
8,1 Jan 2026 18:18:29.992,1 Jan 2026 18:26:13.527,463.534

Statistics
"Min Duration",4,1 Jan 2026 11:35:33.716,1 Jan 2026 11:40:25.981,292.266
"Max Duration",2,1 Jan 2026 08:08:48.522,1 Jan 2026 08:21:35.783,767.261
"Mean Duration",,,,572.057
"Total Duration",,,,4576.457


"Access","Start Time (UTCG)","Stop Time (UTCG)","Duration (sec)"
1,1 Jan 2026 00:40:10.673,1 Jan 2026 00:47:29.572,438.899
2,1 Jan 2026 12:44:29.376,1 Jan 2026 12:56:05.249,695.873
3,1 Jan 2026 14:24:04.997,1 Jan 2026 14:36:37.462,752.466
4,1 Jan 2026 16:06:53.967,1 Jan 2026 16:15:56.069,542.102
5,1 Jan 2026 17:51:30.631,1 Jan 2026 17:55:40.873,250.242
6,1 Jan 2026 19:32:12.067,1 Jan 2026 19:39:43.904,451.837
7,1 Jan 2026 21:11:24.564,1 Jan 2026 21:23:19.704,715.140
8,1 Jan 2026 22:51:25.786,1 Jan 2026 23:03:54.209,748.423

Statistics
"Min Duration",5,1 Jan 2026 17:51:30.631,1 Jan 2026 17:55:40.873,250.242
"Max Duration",3,1 Jan 2026 14:24:04.997,1 Jan 2026 14:36:37.462,752.466
"Mean Duration",,,,574.373
"Total Duration",,,,4594.981


"Access","Start Time (UTCG)","Stop Time (UTCG)","Duration (sec)"
1,1 Jan 2026 00:13:58.056,1 Jan 2026 00:23:53.732,595.676
2,1 Jan 2026 12:20:15.971,1 Jan 2026 12:30:27.889,611.918
3,1 Jan 2026 13:58:51.463,1 Jan 2026 14:11:40.078,768.615
4,1 Jan 2026 15:40:55.480,1 Jan 2026 15:51:08.937,613.458
5,1 Jan 2026 17:25:27.569,1 Jan 2026 17:30:29.861,302.292
6,1 Jan 2026 19:07:21.616,1 Jan 2026 19:13:30.416,368.799
7,1 Jan 2026 20:46:34.724,1 Jan 2026 20:57:41.310,666.586
8,1 Jan 2026 22:26:16.295,1 Jan 2026 22:39:04.453,768.158

Statistics
"Min Duration",5,1 Jan 2026 17:25:27.569,1 Jan 2026 17:30:29.861,302.292
"Max Duration",3,1 Jan 2026 13:58:51.463,1 Jan 2026 14:11:40.078,768.615
"Mean Duration",,,,586.938
"Total Duration",,,,4695.503


"Access","Start Time (UTCG)","Stop Time (UTCG)","Duration (sec)"
1,1 Jan 2026 11:56:33.437,1 Jan 2026 12:04:21.766,468.329
2,1 Jan 2026 13:33:50.226,1 Jan 2026 13:46:37.090,766.865
3,1 Jan 2026 15:15:07.359,1 Jan 2026 15:26:20.820,673.460
4,1 Jan 2026 16:59:14.331,1 Jan 2026 17:05:33.446,379.114
5,1 Jan 2026 18:42:23.909,1 Jan 2026 18:47:17.765,293.856
6,1 Jan 2026 20:21:46.784,1 Jan 2026 20:31:51.824,605.039
7,1 Jan 2026 22:01:14.110,1 Jan 2026 22:14:01.628,767.518
8,1 Jan 2026 23:42:20.333,1 Jan 2026 23:52:45.372,625.039

Statistics
"Min Duration",5,1 Jan 2026 18:42:23.909,1 Jan 2026 18:47:17.765,293.856
"Max Duration",7,1 Jan 2026 22:01:14.110,1 Jan 2026 22:14:01.628,767.518
"Mean Duration",,,,572.403
"Total Duration",,,,4579.221


"Access","Start Time (UTCG)","Stop Time (UTCG)","Duration (sec)"
1,1 Jan 2026 11:34:37.536,1 Jan 2026 11:36:29.798,112.262
2,1 Jan 2026 13:09:02.221,1 Jan 2026 13:21:26.501,744.280
3,1 Jan 2026 14:49:30.399,1 Jan 2026 15:01:30.663,720.265
4,1 Jan 2026 16:33:01.247,1 Jan 2026 16:40:43.530,462.283
5,1 Jan 2026 18:17:10.255,1 Jan 2026 18:21:16.979,246.724
6,1 Jan 2026 19:56:59.698,1 Jan 2026 20:05:52.115,532.417
7,1 Jan 2026 21:36:17.327,1 Jan 2026 21:48:46.579,749.252
8,1 Jan 2026 23:16:45.466,1 Jan 2026 23:28:29.134,703.668

Statistics
"Min Duration",1,1 Jan 2026 11:34:37.536,1 Jan 2026 11:36:29.798,112.262
"Max Duration",7,1 Jan 2026 21:36:17.327,1 Jan 2026 21:48:46.579,749.252
"Mean Duration",,,,533.894
"Total Duration",,,,4271.151


"Access","Start Time (UTCG)","Stop Time (UTCG)","Duration (sec)"
1,1 Jan 2026 00:26:25.897,1 Jan 2026 00:38:09.647,703.749
2,1 Jan 2026 02:06:21.364,1 Jan 2026 02:18:57.145,755.782
3,1 Jan 2026 03:49:44.011,1 Jan 2026 03:54:59.448,315.437
4,1 Jan 2026 15:52:49.080,1 Jan 2026 16:04:51.184,722.104
5,1 Jan 2026 17:32:49.822,1 Jan 2026 17:45:09.179,739.357
6,1 Jan 2026 19:15:58.808,1 Jan 2026 19:24:24.524,505.716
7,1 Jan 2026 21:00:27.048,1 Jan 2026 21:04:28.612,241.564
8,1 Jan 2026 22:40:40.921,1 Jan 2026 22:48:51.034,490.113

Statistics
"Min Duration",7,1 Jan 2026 21:00:27.048,1 Jan 2026 21:04:28.612,241.564
"Max Duration",2,1 Jan 2026 02:06:21.364,1 Jan 2026 02:18:57.145,755.782
"Mean Duration",,,,559.228
"Total Duration",,,,4473.822


"Access","Start Time (UTCG)","Stop Time (UTCG)","Duration (sec)"
1,1 Jan 2026 00:01:36.650,1 Jan 2026 00:12:28.286,651.636
2,1 Jan 2026 01:41:14.016,1 Jan 2026 01:54:03.842,769.826
3,1 Jan 2026 03:23:00.640,1 Jan 2026 03:31:54.814,534.174
4,1 Jan 2026 15:28:25.828,1 Jan 2026 15:39:22.273,656.445
5,1 Jan 2026 17:07:30.713,1 Jan 2026 17:20:13.904,763.191
6,1 Jan 2026 18:49:55.965,1 Jan 2026 18:59:37.436,581.472
7,1 Jan 2026 20:34:33.506,1 Jan 2026 20:39:06.940,273.434
8,1 Jan 2026 22:15:52.168,1 Jan 2026 22:22:39.464,407.296
9,1 Jan 2026 23:55:04.135,2 Jan 2026 00:00:00.000,295.865

Statistics
"Min Duration",7,1 Jan 2026 20:34:33.506,1 Jan 2026 20:39:06.940,273.434
"Max Duration",2,1 Jan 2026 01:41:14.016,1 Jan 2026 01:54:03.842,769.826
"Mean Duration",,,,548.149
"Total Duration",,,,4933.337


"Access","Start Time (UTCG)","Stop Time (UTCG)","Duration (sec)"
1,1 Jan 2026 01:16:13.399,1 Jan 2026 01:28:57.751,764.352
2,1 Jan 2026 02:57:08.189,1 Jan 2026 03:07:57.937,649.748
3,1 Jan 2026 15:04:26.533,1 Jan 2026 15:13:32.090,545.557
4,1 Jan 2026 16:42:23.668,1 Jan 2026 16:55:13.733,770.065
5,1 Jan 2026 18:24:02.872,1 Jan 2026 18:34:49.917,647.045
6,1 Jan 2026 20:08:23.379,1 Jan 2026 20:14:05.032,341.653
7,1 Jan 2026 21:50:58.617,1 Jan 2026 21:56:25.397,326.780
8,1 Jan 2026 23:30:15.429,1 Jan 2026 23:40:50.664,635.234

Statistics
"Min Duration",7,1 Jan 2026 21:50:58.617,1 Jan 2026 21:56:25.397,326.780
"Max Duration",4,1 Jan 2026 16:42:23.668,1 Jan 2026 16:55:13.733,770.065
"Mean Duration",,,,585.054
"Total Duration",,,,4680.436


"Access","Start Time (UTCG)","Stop Time (UTCG)","Duration (sec)"
1,1 Jan 2026 00:51:17.791,1 Jan 2026 01:03:39.567,741.776
2,1 Jan 2026 02:31:38.001,1 Jan 2026 02:43:36.211,718.211
3,1 Jan 2026 14:41:15.111,1 Jan 2026 14:46:55.445,340.333
4,1 Jan 2026 16:17:29.339,1 Jan 2026 16:30:06.983,757.645
5,1 Jan 2026 17:58:20.642,1 Jan 2026 18:10:00.834,700.192
6,1 Jan 2026 19:42:09.284,1 Jan 2026 19:49:12.790,423.506
7,1 Jan 2026 21:25:53.784,1 Jan 2026 21:30:17.368,263.584
8,1 Jan 2026 23:05:28.092,1 Jan 2026 23:14:55.571,567.479

Statistics
"Min Duration",7,1 Jan 2026 21:25:53.784,1 Jan 2026 21:30:17.368,263.584
"Max Duration",4,1 Jan 2026 16:17:29.339,1 Jan 2026 16:30:06.983,757.645
"Mean Duration",,,,564.091
"Total Duration",,,,4512.725


"Access","Start Time (UTCG)","Stop Time (UTCG)","Duration (sec)"
1,1 Jan 2026 00:15:14.306,1 Jan 2026 00:19:19.290,244.984
2,1 Jan 2026 01:55:43.033,1 Jan 2026 02:03:31.712,468.679
3,1 Jan 2026 03:34:56.170,1 Jan 2026 03:46:59.474,723.304
4,1 Jan 2026 05:15:02.200,1 Jan 2026 05:27:23.734,741.534
5,1 Jan 2026 19:01:12.438,1 Jan 2026 19:13:34.322,741.885
6,1 Jan 2026 20:41:37.188,1 Jan 2026 20:53:40.113,722.926
7,1 Jan 2026 22:25:05.334,1 Jan 2026 22:32:53.219,467.885

Statistics
"Min Duration",1,1 Jan 2026 00:15:14.306,1 Jan 2026 00:19:19.290,244.984
"Max Duration",5,1 Jan 2026 19:01:12.438,1 Jan 2026 19:13:34.322,741.885
"Mean Duration",,,,587.314
"Total Duration",,,,4111.196


"Access","Start Time (UTCG)","Stop Time (UTCG)","Duration (sec)"
1,1 Jan 2026 01:30:53.418,1 Jan 2026 01:37:18.928,385.510
2,1 Jan 2026 03:10:05.814,1 Jan 2026 03:21:23.402,677.587
3,1 Jan 2026 04:49:50.912,1 Jan 2026 05:02:36.813,765.901
4,1 Jan 2026 06:32:12.901,1 Jan 2026 06:39:45.928,453.026
5,1 Jan 2026 18:36:40.737,1 Jan 2026 18:48:12.192,691.455
6,1 Jan 2026 20:16:12.586,1 Jan 2026 20:28:46.670,754.084
7,1 Jan 2026 21:58:58.580,1 Jan 2026 22:08:05.834,547.254
8,1 Jan 2026 23:43:35.841,1 Jan 2026 23:47:48.315,252.473

Statistics
"Min Duration",8,1 Jan 2026 23:43:35.841,1 Jan 2026 23:47:48.315,252.473
"Max Duration",3,1 Jan 2026 04:49:50.912,1 Jan 2026 05:02:36.813,765.901
"Mean Duration",,,,565.911
"Total Duration",,,,4527.291


"Access","Start Time (UTCG)","Stop Time (UTCG)","Duration (sec)"
1,1 Jan 2026 01:05:57.729,1 Jan 2026 01:11:05.402,307.673
2,1 Jan 2026 02:45:17.575,1 Jan 2026 02:55:36.123,618.548
3,1 Jan 2026 04:24:47.416,1 Jan 2026 04:37:36.565,769.149
4,1 Jan 2026 06:06:03.435,1 Jan 2026 06:16:06.848,603.413
5,1 Jan 2026 18:12:28.930,1 Jan 2026 18:22:33.417,604.487
6,1 Jan 2026 19:50:59.866,1 Jan 2026 20:03:48.954,769.088
7,1 Jan 2026 21:33:00.755,1 Jan 2026 21:43:18.673,617.919
8,1 Jan 2026 23:17:31.651,1 Jan 2026 23:22:38.645,306.994

Statistics
"Min Duration",8,1 Jan 2026 23:17:31.651,1 Jan 2026 23:22:38.645,306.994
"Max Duration",3,1 Jan 2026 04:24:47.416,1 Jan 2026 04:37:36.565,769.149
"Mean Duration",,,,574.659
"Total Duration",,,,4597.270


"Access","Start Time (UTCG)","Stop Time (UTCG)","Duration (sec)"
1,1 Jan 2026 00:40:48.252,1 Jan 2026 00:45:01.053,252.801
2,1 Jan 2026 02:20:30.407,1 Jan 2026 02:29:38.396,547.989
3,1 Jan 2026 03:59:49.656,1 Jan 2026 04:12:23.966,754.310
4,1 Jan 2026 05:40:24.457,1 Jan 2026 05:51:55.274,690.817
5,1 Jan 2026 17:48:49.407,1 Jan 2026 17:56:24.381,454.974
6,1 Jan 2026 19:25:59.490,1 Jan 2026 19:38:45.522,766.032
7,1 Jan 2026 21:07:13.375,1 Jan 2026 21:18:30.448,677.073
8,1 Jan 2026 22:51:18.161,1 Jan 2026 22:57:42.872,384.711

Statistics
"Min Duration",1,1 Jan 2026 00:40:48.252,1 Jan 2026 00:45:01.053,252.801
"Max Duration",6,1 Jan 2026 19:25:59.490,1 Jan 2026 19:38:45.522,766.032
"Mean Duration",,,,566.088
"Total Duration",,,,4528.705


"Access","Start Time (UTCG)","Stop Time (UTCG)","Duration (sec)"
1,1 Jan 2026 00:00:00.000,1 Jan 2026 00:08:41.088,521.088
2,1 Jan 2026 01:39:45.999,1 Jan 2026 01:47:55.325,489.325
3,1 Jan 2026 03:24:08.095,1 Jan 2026 03:28:09.716,241.621
4,1 Jan 2026 05:04:11.721,1 Jan 2026 05:12:38.208,506.487
5,1 Jan 2026 06:43:27.120,1 Jan 2026 06:55:46.787,739.666
6,1 Jan 2026 08:23:45.388,1 Jan 2026 08:35:47.015,721.628
7,1 Jan 2026 20:33:35.237,1 Jan 2026 20:38:53.912,318.676
8,1 Jan 2026 22:09:39.096,1 Jan 2026 22:22:15.115,756.019
9,1 Jan 2026 23:50:27.071,2 Jan 2026 00:00:00.000,572.929

Statistics
"Min Duration",3,1 Jan 2026 03:24:08.095,1 Jan 2026 03:28:09.716,241.621
"Max Duration",8,1 Jan 2026 22:09:39.096,1 Jan 2026 22:22:15.115,756.019
"Mean Duration",,,,540.827
"Total Duration",,,,4867.439


"Access","Start Time (UTCG)","Stop Time (UTCG)","Duration (sec)"
1,1 Jan 2026 01:13:41.376,1 Jan 2026 01:23:08.150,566.774
2,1 Jan 2026 02:58:19.587,1 Jan 2026 03:02:42.712,263.125
3,1 Jan 2026 04:39:23.477,1 Jan 2026 04:46:27.789,424.312
4,1 Jan 2026 06:18:35.438,1 Jan 2026 06:30:16.079,700.640
5,1 Jan 2026 07:58:29.488,1 Jan 2026 08:11:06.911,757.423
6,1 Jan 2026 09:41:42.347,1 Jan 2026 09:47:19.710,337.362
7,1 Jan 2026 21:44:59.874,1 Jan 2026 21:56:58.581,718.707
8,1 Jan 2026 23:24:57.029,1 Jan 2026 23:37:18.511,741.482

Statistics
"Min Duration",2,1 Jan 2026 02:58:19.587,1 Jan 2026 03:02:42.712,263.125
"Max Duration",5,1 Jan 2026 07:58:29.488,1 Jan 2026 08:11:06.911,757.423
"Mean Duration",,,,563.728
"Total Duration",,,,4509.826


"Access","Start Time (UTCG)","Stop Time (UTCG)","Duration (sec)"
1,1 Jan 2026 00:47:46.188,1 Jan 2026 00:58:20.815,634.627
2,1 Jan 2026 02:32:11.681,1 Jan 2026 02:37:37.725,326.045
3,1 Jan 2026 04:14:31.289,1 Jan 2026 04:20:13.701,342.412
4,1 Jan 2026 05:53:46.339,1 Jan 2026 06:04:33.953,647.614
5,1 Jan 2026 07:33:22.668,1 Jan 2026 07:46:12.702,770.034
6,1 Jan 2026 09:15:04.922,1 Jan 2026 09:24:09.082,544.161
7,1 Jan 2026 21:20:37.956,1 Jan 2026 21:31:28.556,650.600
8,1 Jan 2026 22:59:38.735,1 Jan 2026 23:12:22.947,764.212

Statistics
"Min Duration",2,1 Jan 2026 02:32:11.681,1 Jan 2026 02:37:37.725,326.045
"Max Duration",5,1 Jan 2026 07:33:22.668,1 Jan 2026 07:46:12.702,770.034
"Mean Duration",,,,584.963
"Total Duration",,,,4679.705


"Access","Start Time (UTCG)","Stop Time (UTCG)","Duration (sec)"
1,1 Jan 2026 00:22:01.685,1 Jan 2026 00:33:32.136,690.452
2,1 Jan 2026 02:05:57.622,1 Jan 2026 02:12:44.109,406.487
3,1 Jan 2026 03:49:29.522,1 Jan 2026 03:54:03.478,273.956
4,1 Jan 2026 05:28:58.809,1 Jan 2026 05:38:40.965,582.156
5,1 Jan 2026 07:08:22.442,1 Jan 2026 07:21:05.779,763.337
6,1 Jan 2026 08:49:14.458,1 Jan 2026 09:00:10.079,655.621
7,1 Jan 2026 20:56:40.776,1 Jan 2026 21:05:36.397,535.621
8,1 Jan 2026 22:34:32.524,1 Jan 2026 22:47:22.389,769.865

Statistics
"Min Duration",3,1 Jan 2026 03:49:29.522,1 Jan 2026 03:54:03.478,273.956
"Max Duration",8,1 Jan 2026 22:34:32.524,1 Jan 2026 22:47:22.389,769.865
"Mean Duration",,,,584.687
"Total Duration",,,,4677.496


"Access","Start Time (UTCG)","Stop Time (UTCG)","Duration (sec)"
1,1 Jan 2026 01:24:41.995,1 Jan 2026 01:37:10.710,748.715
2,1 Jan 2026 03:05:16.977,1 Jan 2026 03:17:11.713,714.736
3,1 Jan 2026 04:48:53.158,1 Jan 2026 04:56:24.188,451.030
4,1 Jan 2026 06:32:55.710,1 Jan 2026 06:37:06.247,250.536
5,1 Jan 2026 08:12:40.173,1 Jan 2026 08:21:43.011,542.838
6,1 Jan 2026 09:51:58.859,1 Jan 2026 10:04:31.558,752.699
7,1 Jan 2026 11:32:31.387,1 Jan 2026 11:44:06.648,695.261
8,1 Jan 2026 23:41:05.714,1 Jan 2026 23:48:26.660,440.946

Statistics
"Min Duration",4,1 Jan 2026 06:32:55.710,1 Jan 2026 06:37:06.247,250.536
"Max Duration",6,1 Jan 2026 09:51:58.859,1 Jan 2026 10:04:31.558,752.699
"Mean Duration",,,,574.595
"Total Duration",,,,4596.762


"Access","Start Time (UTCG)","Stop Time (UTCG)","Duration (sec)"
1,1 Jan 2026 01:00:06.914,1 Jan 2026 01:11:51.158,704.244
2,1 Jan 2026 02:39:49.996,1 Jan 2026 02:52:18.991,748.995
3,1 Jan 2026 04:22:44.875,1 Jan 2026 04:31:36.546,531.671
4,1 Jan 2026 06:07:19.868,1 Jan 2026 06:11:26.357,246.489
5,1 Jan 2026 07:47:52.722,1 Jan 2026 07:55:35.807,463.084
6,1 Jan 2026 09:27:05.621,1 Jan 2026 09:39:06.270,720.649
7,1 Jan 2026 11:07:10.017,1 Jan 2026 11:19:33.964,743.947
8,1 Jan 2026 12:52:11.834,1 Jan 2026 12:53:53.450,101.616

Statistics
"Min Duration",8,1 Jan 2026 12:52:11.834,1 Jan 2026 12:53:53.450,101.616
"Max Duration",2,1 Jan 2026 02:39:49.996,1 Jan 2026 02:52:18.991,748.995
"Mean Duration",,,,532.587
"Total Duration",,,,4260.695


"Access","Start Time (UTCG)","Stop Time (UTCG)","Duration (sec)"
1,1 Jan 2026 00:35:50.459,1 Jan 2026 00:46:16.465,626.006
2,1 Jan 2026 02:14:34.824,1 Jan 2026 02:27:22.253,767.430
3,1 Jan 2026 03:56:45.074,1 Jan 2026 04:06:49.459,604.385
4,1 Jan 2026 05:41:19.264,1 Jan 2026 05:46:12.494,293.230
5,1 Jan 2026 07:23:02.846,1 Jan 2026 07:29:22.755,379.910
6,1 Jan 2026 09:02:15.441,1 Jan 2026 09:13:29.423,673.982
7,1 Jan 2026 10:41:59.342,1 Jan 2026 10:54:46.086,766.744
8,1 Jan 2026 12:24:15.470,1 Jan 2026 12:32:01.940,466.470

Statistics
"Min Duration",4,1 Jan 2026 05:41:19.264,1 Jan 2026 05:46:12.494,293.230
"Max Duration",2,1 Jan 2026 02:14:34.824,1 Jan 2026 02:27:22.253,767.430
"Mean Duration",,,,572.269
"Total Duration",,,,4578.156


"Access","Start Time (UTCG)","Stop Time (UTCG)","Duration (sec)"
1,1 Jan 2026 00:12:02.412,1 Jan 2026 00:20:15.642,493.229
2,1 Jan 2026 01:49:31.879,1 Jan 2026 02:02:20.124,768.246
3,1 Jan 2026 03:30:55.488,1 Jan 2026 03:42:01.538,666.049
4,1 Jan 2026 05:15:06.674,1 Jan 2026 05:21:14.684,368.009
5,1 Jan 2026 06:58:06.522,1 Jan 2026 07:03:09.475,302.953
6,1 Jan 2026 08:37:27.305,1 Jan 2026 08:47:41.405,614.100
7,1 Jan 2026 10:16:56.289,1 Jan 2026 10:29:44.976,768.688
8,1 Jan 2026 11:58:08.945,1 Jan 2026 12:08:19.821,610.876

Statistics
"Min Duration",5,1 Jan 2026 06:58:06.522,1 Jan 2026 07:03:09.475,302.953
"Max Duration",7,1 Jan 2026 10:16:56.289,1 Jan 2026 10:29:44.976,768.688
"Mean Duration",,,,574.019
"Total Duration",,,,4592.149


"Access","Start Time (UTCG)","Stop Time (UTCG)","Duration (sec)"
1,1 Jan 2026 02:56:37.208,1 Jan 2026 03:02:56.168,378.960
2,1 Jan 2026 04:33:10.015,1 Jan 2026 04:45:50.598,760.583
3,1 Jan 2026 06:14:07.951,1 Jan 2026 06:25:41.714,693.763
4,1 Jan 2026 07:58:01.492,1 Jan 2026 08:04:53.650,412.158
5,1 Jan 2026 09:41:37.707,1 Jan 2026 09:46:08.026,270.320
6,1 Jan 2026 11:21:08.566,1 Jan 2026 11:30:45.877,577.311
7,1 Jan 2026 13:00:31.503,1 Jan 2026 13:13:13.747,762.244
8,1 Jan 2026 14:41:20.821,1 Jan 2026 14:52:22.115,661.294

Statistics
"Min Duration",5,1 Jan 2026 09:41:37.707,1 Jan 2026 09:46:08.026,270.320
"Max Duration",7,1 Jan 2026 13:00:31.503,1 Jan 2026 13:13:13.747,762.244
"Mean Duration",,,,564.579
"Total Duration",,,,4516.632


"Access","Start Time (UTCG)","Stop Time (UTCG)","Duration (sec)"
1,1 Jan 2026 04:08:27.724,1 Jan 2026 04:20:36.220,728.496
2,1 Jan 2026 05:48:35.560,1 Jan 2026 06:00:50.466,734.906
3,1 Jan 2026 07:31:50.233,1 Jan 2026 07:40:05.048,494.815
4,1 Jan 2026 09:16:14.548,1 Jan 2026 09:20:15.881,241.334
5,1 Jan 2026 10:56:21.458,1 Jan 2026 11:04:42.516,501.058
6,1 Jan 2026 12:35:36.470,1 Jan 2026 12:47:53.954,737.483
7,1 Jan 2026 14:15:52.836,1 Jan 2026 14:27:57.747,724.911

Statistics
"Min Duration",4,1 Jan 2026 09:16:14.548,1 Jan 2026 09:20:15.881,241.334
"Max Duration",6,1 Jan 2026 12:35:36.470,1 Jan 2026 12:47:53.954,737.483
"Mean Duration",,,,594.715
"Total Duration",,,,4163.003


"Access","Start Time (UTCG)","Stop Time (UTCG)","Duration (sec)"
1,1 Jan 2026 03:44:01.890,1 Jan 2026 03:55:09.428,667.538
2,1 Jan 2026 05:23:14.844,1 Jan 2026 05:35:55.748,760.904
3,1 Jan 2026 07:05:46.195,1 Jan 2026 07:15:17.913,571.717
4,1 Jan 2026 08:50:24.314,1 Jan 2026 08:54:50.692,266.378
5,1 Jan 2026 10:31:33.063,1 Jan 2026 10:38:31.697,418.633
6,1 Jan 2026 12:10:44.996,1 Jan 2026 12:22:22.455,697.459
7,1 Jan 2026 13:50:37.654,1 Jan 2026 14:03:16.609,758.955
8,1 Jan 2026 15:33:41.532,1 Jan 2026 15:39:39.115,357.582

Statistics
"Min Duration",4,1 Jan 2026 08:50:24.314,1 Jan 2026 08:54:50.692,266.378
"Max Duration",2,1 Jan 2026 05:23:14.844,1 Jan 2026 05:35:55.748,760.904
"Mean Duration",,,,562.396
"Total Duration",,,,4499.166


"Access","Start Time (UTCG)","Stop Time (UTCG)","Duration (sec)"
1,1 Jan 2026 03:19:58.621,1 Jan 2026 03:29:22.925,564.303
2,1 Jan 2026 04:58:06.133,1 Jan 2026 05:10:56.333,770.201
3,1 Jan 2026 06:39:51.697,1 Jan 2026 06:50:30.521,638.824
4,1 Jan 2026 08:24:15.602,1 Jan 2026 08:29:46.779,331.177
5,1 Jan 2026 10:06:40.445,1 Jan 2026 10:12:17.579,337.134
6,1 Jan 2026 11:45:56.031,1 Jan 2026 11:56:39.572,643.541
7,1 Jan 2026 13:25:31.349,1 Jan 2026 13:38:21.508,770.159
8,1 Jan 2026 15:07:09.386,1 Jan 2026 15:16:23.156,553.770

Statistics
"Min Duration",4,1 Jan 2026 08:24:15.602,1 Jan 2026 08:29:46.779,331.177
"Max Duration",2,1 Jan 2026 04:58:06.133,1 Jan 2026 05:10:56.333,770.201
"Mean Duration",,,,576.139
"Total Duration",,,,4609.109


"Access","Start Time (UTCG)","Stop Time (UTCG)","Duration (sec)"
1,1 Jan 2026 06:04:17.787,1 Jan 2026 06:12:18.849,481.062
2,1 Jan 2026 07:41:41.026,1 Jan 2026 07:54:28.620,767.594
3,1 Jan 2026 09:23:01.394,1 Jan 2026 09:34:11.181,669.787
4,1 Jan 2026 11:07:10.502,1 Jan 2026 11:13:24.045,373.543
5,1 Jan 2026 12:50:15.251,1 Jan 2026 12:55:13.595,298.344
6,1 Jan 2026 14:29:37.043,1 Jan 2026 14:39:46.638,609.595
7,1 Jan 2026 16:09:05.187,1 Jan 2026 16:21:53.331,768.144
8,1 Jan 2026 17:50:14.579,1 Jan 2026 18:00:32.662,618.083

Statistics
"Min Duration",5,1 Jan 2026 12:50:15.251,1 Jan 2026 12:55:13.595,298.344
"Max Duration",7,1 Jan 2026 16:09:05.187,1 Jan 2026 16:21:53.331,768.144
"Mean Duration",,,,573.269
"Total Duration",,,,4586.152


"Access","Start Time (UTCG)","Stop Time (UTCG)","Duration (sec)"
1,1 Jan 2026 05:42:00.078,1 Jan 2026 05:44:48.676,168.598
2,1 Jan 2026 07:16:52.072,1 Jan 2026 07:29:18.632,746.559
3,1 Jan 2026 08:57:23.663,1 Jan 2026 09:09:21.196,717.533
4,1 Jan 2026 10:40:57.187,1 Jan 2026 10:48:33.853,456.666
5,1 Jan 2026 12:25:03.045,1 Jan 2026 12:29:11.556,248.511
6,1 Jan 2026 14:04:49.935,1 Jan 2026 14:13:47.582,537.647
7,1 Jan 2026 15:44:08.082,1 Jan 2026 15:56:39.096,751.014
8,1 Jan 2026 17:24:38.393,1 Jan 2026 17:36:17.934,699.541

Statistics
"Min Duration",1,1 Jan 2026 05:42:00.078,1 Jan 2026 05:44:48.676,168.598
"Max Duration",7,1 Jan 2026 15:44:08.082,1 Jan 2026 15:56:39.096,751.014
"Mean Duration",,,,540.759
"Total Duration",,,,4326.070


"Access","Start Time (UTCG)","Stop Time (UTCG)","Duration (sec)"
1,1 Jan 2026 06:52:18.097,1 Jan 2026 07:03:58.240,700.143
2,1 Jan 2026 08:31:57.468,1 Jan 2026 08:44:28.236,750.768
3,1 Jan 2026 10:14:49.404,1 Jan 2026 10:23:46.302,536.898
4,1 Jan 2026 11:59:25.312,1 Jan 2026 12:03:33.549,248.236
5,1 Jan 2026 13:40:02.397,1 Jan 2026 13:47:39.868,457.472
6,1 Jan 2026 15:19:15.086,1 Jan 2026 15:31:13.015,717.928
7,1 Jan 2026 16:59:17.879,1 Jan 2026 17:11:44.121,746.242
8,1 Jan 2026 18:43:51.019,1 Jan 2026 18:46:32.847,161.828

Statistics
"Min Duration",8,1 Jan 2026 18:43:51.019,1 Jan 2026 18:46:32.847,161.828
"Max Duration",2,1 Jan 2026 08:31:57.468,1 Jan 2026 08:44:28.236,750.768
"Mean Duration",,,,539.939
"Total Duration",,,,4319.516


"Access","Start Time (UTCG)","Stop Time (UTCG)","Duration (sec)"
1,1 Jan 2026 06:28:03.148,1 Jan 2026 06:38:22.235,619.087
2,1 Jan 2026 08:06:43.116,1 Jan 2026 08:19:31.176,768.060
3,1 Jan 2026 09:48:50.253,1 Jan 2026 09:58:59.199,608.946
4,1 Jan 2026 11:33:23.442,1 Jan 2026 11:38:21.144,297.701
5,1 Jan 2026 13:15:12.248,1 Jan 2026 13:21:26.587,374.339
6,1 Jan 2026 14:54:25.080,1 Jan 2026 15:05:35.392,670.312
7,1 Jan 2026 16:34:07.800,1 Jan 2026 16:46:55.300,767.500
8,1 Jan 2026 18:16:18.349,1 Jan 2026 18:24:17.633,479.284

Statistics
"Min Duration",4,1 Jan 2026 11:33:23.442,1 Jan 2026 11:38:21.144,297.701
"Max Duration",2,1 Jan 2026 08:06:43.116,1 Jan 2026 08:19:31.176,768.060
"Mean Duration",,,,573.154
"Total Duration",,,,4585.228


"Access","Start Time (UTCG)","Stop Time (UTCG)","Duration (sec)"
1,1 Jan 2026 09:12:12.486,1 Jan 2026 09:21:27.598,555.112
2,1 Jan 2026 10:50:14.871,1 Jan 2026 11:03:05.048,770.177
3,1 Jan 2026 12:31:57.259,1 Jan 2026 12:42:40.222,642.962
4,1 Jan 2026 14:16:19.501,1 Jan 2026 14:21:55.882,336.381
5,1 Jan 2026 15:58:49.555,1 Jan 2026 16:04:21.475,331.920
6,1 Jan 2026 17:38:05.724,1 Jan 2026 17:48:45.144,639.419
7,1 Jan 2026 19:17:40.059,1 Jan 2026 19:30:30.256,770.197
8,1 Jan 2026 20:59:14.030,1 Jan 2026 21:08:37.046,563.016

Statistics
"Min Duration",5,1 Jan 2026 15:58:49.555,1 Jan 2026 16:04:21.475,331.920
"Max Duration",7,1 Jan 2026 19:17:40.059,1 Jan 2026 19:30:30.256,770.197
"Mean Duration",,,,576.148
"Total Duration",,,,4609.183


"Access","Start Time (UTCG)","Stop Time (UTCG)","Duration (sec)"
1,1 Jan 2026 08:48:55.813,1 Jan 2026 08:54:56.154,360.341
2,1 Jan 2026 10:25:19.646,1 Jan 2026 10:37:58.811,759.165
3,1 Jan 2026 12:06:14.270,1 Jan 2026 12:17:51.279,697.009
4,1 Jan 2026 13:50:05.380,1 Jan 2026 13:57:03.210,417.830
5,1 Jan 2026 15:33:45.796,1 Jan 2026 15:38:12.654,266.858
6,1 Jan 2026 17:13:18.329,1 Jan 2026 17:22:50.745,572.416
7,1 Jan 2026 18:52:40.584,1 Jan 2026 19:05:21.662,761.078
8,1 Jan 2026 20:33:27.275,1 Jan 2026 20:44:34.046,666.771

Statistics
"Min Duration",5,1 Jan 2026 15:33:45.796,1 Jan 2026 15:38:12.654,266.858
"Max Duration",7,1 Jan 2026 18:52:40.584,1 Jan 2026 19:05:21.662,761.078
"Mean Duration",,,,562.683
"Total Duration",,,,4501.468


"Access","Start Time (UTCG)","Stop Time (UTCG)","Duration (sec)"
1,1 Jan 2026 10:00:38.368,1 Jan 2026 10:12:43.730,725.362
2,1 Jan 2026 11:40:42.660,1 Jan 2026 11:52:59.834,737.173
3,1 Jan 2026 13:23:54.507,1 Jan 2026 13:32:14.782,500.275
4,1 Jan 2026 15:08:20.862,1 Jan 2026 15:12:22.179,241.317
5,1 Jan 2026 16:48:31.197,1 Jan 2026 16:56:46.794,495.597
6,1 Jan 2026 18:27:45.827,1 Jan 2026 18:40:01.063,735.236
7,1 Jan 2026 20:08:00.337,1 Jan 2026 20:20:08.398,728.061

Statistics
"Min Duration",4,1 Jan 2026 15:08:20.862,1 Jan 2026 15:12:22.179,241.317
"Max Duration",2,1 Jan 2026 11:40:42.660,1 Jan 2026 11:52:59.834,737.173
"Mean Duration",,,,594.717
"Total Duration",,,,4163.020


"Access","Start Time (UTCG)","Stop Time (UTCG)","Duration (sec)"
1,1 Jan 2026 09:36:13.812,1 Jan 2026 09:47:15.897,662.085
2,1 Jan 2026 11:15:22.754,1 Jan 2026 11:28:04.839,762.086
3,1 Jan 2026 12:57:51.059,1 Jan 2026 13:07:27.675,576.616
4,1 Jan 2026 14:42:28.951,1 Jan 2026 14:46:58.767,269.816
5,1 Jan 2026 16:23:42.622,1 Jan 2026 16:30:35.587,412.966
6,1 Jan 2026 18:02:54.559,1 Jan 2026 18:14:28.784,694.225
7,1 Jan 2026 19:42:45.861,1 Jan 2026 19:55:26.246,760.385
8,1 Jan 2026 21:25:41.428,1 Jan 2026 21:31:57.811,376.382

Statistics
"Min Duration",4,1 Jan 2026 14:42:28.951,1 Jan 2026 14:46:58.767,269.816
"Max Duration",2,1 Jan 2026 11:15:22.754,1 Jan 2026 11:28:04.839,762.086
"Mean Duration",,,,564.320
"Total Duration",,,,4514.562


